name,geometry,lat,lon,category
Wester Hailes Library,POINT (-3.2851455 55.9162285),55.9162285,-3.2851455,library
Pirniehall Primary School,POINT (-3.2510739 55.9737056),55.9737056,-3.2510739,school
Corstorphine Library,POINT (-3.2810362 55.9407099),55.9407099,-3.2810362,library
Fettes College Preparatory School,POINT (-3.2259783 55.9666246),55.9666246,-3.2259783,school
Haywired,POINT (-3.1233362 55.9344588),55.9344588,-3.1233362,school
Musselburgh Library,POINT (-3.0563335 55.9427446),55.9427446,-3.0563335,library
St David's RC Primary School,POINT (-3.2505865 55.9737343),55.9737343,-3.2505865,school
Playfair Library,POINT (-3.1869088 55.9472046),55.9472046,-3.1869088,library
Communications & Marketing,POINT (-3.1922264 55.9460305),55.9460305,-3.1922264,university
Mannafields Christian School,POINT (-3.171037 55.9609479),55.9609479,-3.171037,school
Craigmillar Library,POINT (-3.1367474 55.9331942),55.9331942,-3.1367474,library
St Andrew's First Aid,POINT (-3.1719622 55.9768772),55.9768772,-3.1719622,school
Caledonian Language School,POINT (-3.2137763 55.9471277),55.9471277,-3.2137763,school
BSC Edinburgh,POINT (-3.1994168 55.9529392),55.9529392,-3.1994168,school
Lasswade Library,POINT (-3.1137959 55.8717713),55.8717713,-3.1137959,library
Spark of Genius Musselburgh Learning Centre,POINT (-3.0674452 55.9430316),55.9430316,-3.0674452,school
Broomhouse Primary School,POINT (-3.2737099 55.9284829),55.9284829,-3.2737099,school
St Joseph's RC Primary School,POINT (-3.2737141 55.9283187),55.9283187,-3.2737141,school
Fox Covert Primary School,POINT (-3.2797797 55.952496),55.952496,-3.2797797,school
St Andrew's Fox Covert RC Primary School,POINT (-3.2797668 55.9523307),55.9523307,-3.2797668,school
Howdenhall & St Katharine's Special School,POINT (-3.1653365 55.9037635),55.9037635,-3.1653365,school
Edinburgh Montessori Arts School,POINT (-3.1693957 55.9173669),55.9173669,-3.1693957,school
Dalkeith High School,POINT (-3.0453157 55.9016163),55.9016163,-3.0453157,school
Saltersgate School,POINT (-3.0457663 55.9013877),55.9013877,-3.0457663,school
St David's RC High School,POINT (-3.0448758 55.900684),55.900684,-3.0448758,school
Sighthill Library,POINT (-3.2875585 55.9201125),55.9201125,-3.2875585,library
Orcadia Creative Learning Centre,POINT (-3.1132882 55.9518817),55.9518817,-3.1132882,school
Leith Public Library,POINT (-3.1800469 55.9754823),55.9754823,-3.1800469,library
Moray House Library,POINT (-3.1808417 55.9506224),55.9506224,-3.1808417,library
Edinburgh Napier Merchiston Library,POINT (-3.2128229 55.9334673),55.9334673,-3.2128229,library
Advocates Library,POINT (-3.1915551 55.9488724),55.9488724,-3.1915551,library
South Neighbourhood Office and Library,POINT (-3.1531137 55.9028613),55.9028613,-3.1531137,library
Loanhead Library,POINT (-3.1535729 55.8796264),55.8796264,-3.1535729,library
Artiscience Library,POINT (-3.1818686 55.939691),55.939691,-3.1818686,library
Edinburgh College of Art Library,POINT (-3.2005191 55.9460774),55.9460774,-3.2005191,library
Central Children's Library,POINT (-3.1924454 55.9484985),55.9484985,-3.1924454,library
Edinburgh Law School Library,POINT (-3.1876627 55.9476338),55.9476338,-3.1876627,library
Signet Library,POINT (-3.1916095 55.9491104),55.9491104,-3.1916095,library
Newbattle Library,POINT (-3.0485666 55.87442),55.87442,-3.0485666,library
Granton Library,POINT (-3.2267667 55.9767277),55.9767277,-3.2267667,library
Tiler Training School,POINT (-3.1470357 55.9339879),55.9339879,-3.1470357,school
Danderhall Library,POINT (-3.1102172 55.9162181),55.9162181,-3.1102172,library
St Francis' RC Primary School,POINT (-3.1275795 55.9350492),55.9350492,-3.1275795,school
Niddrie Mill Primary School,POINT (-3.1278129 55.9346225),55.9346225,-3.1278129,school
Lecture Theatre 1 (LT1),POINT (-3.3226547 55.9107026),55.9107026,-3.3226547,university
Lecture Theatre 2 (LT2),POINT (-3.3225449 55.9106208),55.9106208,-3.3225449,university
Lecture Theatre 3 (LT3),POINT (-3.3224258 55.9105456),55.9105456,-3.3224258,university
Lecture Theatre 4 (LT4),POINT (-3.3212805 55.9102825),55.9102825,-3.3212805,university
New College Library,POINT (-3.1949634 55.949736),55.949736,-3.1949634,library
Mannafields Christian School,POINT (-3.152655 55.9555238),55.9555238,-3.152655,school
Sighthill Learning Resource Centre (LRC),POINT (-3.2880002 55.9246932),55.9246932,-3.2880002,library
Victoria Manor Care Home,POINT (-3.175409486457825 55.96195680344949),55.9619568,-3.175409486,residential
Fort Primary,POINT (-3.1861957347120877 55.97648064452472),55.97648064,-3.186195735,school
Dalkeith Library,POINT (-3.070264126611174 55.89286101081005),55.89286101,-3.070264127,library
Cramond Primary School,POINT (-3.304438657594803 55.97141010853901),55.97141011,-3.304438658,school
Leonard Horner Hall,POINT (-3.318215975055583 55.91043558298055),55.91043558,-3.318215975,residential
,POINT (-3.2563428614486174 55.94475427866509),55.94475428,-3.256342861,residential
,POINT (-3.1626129711476736 55.92380519599938),55.9238052,-3.162612971,residential
Tesco Bank,POINT (-3.2959918668063004 55.93180446210103),55.93180446,-3.295991867,commercial
,POINT (-3.1571552286671247 55.96564932657135),55.96564933,-3.157155229,residential
Aegon Asset Management,POINT (-3.314039763309612 55.93483735341742),55.93483735,-3.314039763,commercial
,POINT (-3.097998874457817 55.94325687732083),55.94325688,-3.097998874,residential
RBS,POINT (-3.1908096128639447 55.954513447898925),55.95451345,-3.190809613,commercial
,POINT (-3.326681482483244 55.922590087694786),55.92259009,-3.326681482,residential
Dunkeld Flats,POINT (-3.179659144641302 55.95079634843871),55.95079635,-3.179659145,residential
Davidson House,POINT (-3.243113187550571 55.91440848993953),55.91440849,-3.243113188,residential
Blackhall Library,POINT (-3.260969430153263 55.96164590290974),55.9616459,-3.26096943,library
,POINT (-3.228358678467578 55.93979903864056),55.93979904,-3.228358678,commercial
Broughton Primary School,POINT (-3.1892934864513935 55.965714747628674),55.96571475,-3.189293486,school
5 Buccleuch Place Lane,POINT (-3.1846350023684162 55.94254613269857),55.94254613,-3.184635002,residential
Nazareth House,POINT (-3.1098155487691868 55.88266915146412),55.88266915,-3.109815549,residential
St Crispin's School,POINT (-3.1533436373294803 55.898090513356394),55.89809051,-3.153343637,school
Loretto Senior School,POINT (-3.0442159581604145 55.943131611433195),55.94313161,-3.044215958,school
Wardie Primary School,POINT (-3.2134304789181654 55.97530207823471),55.97530208,-3.213430479,school
University of Edinburgh - Easter Bush Campus,POINT (-3.199993152608295 55.86443942578601),55.86443943,-3.199993153,university
University of Edinburgh Bioquarter,POINT (-3.1304597946885817 55.92003105171874),55.92003105,-3.130459795,university
Edinburgh University Library,POINT (-3.1889897474849724 55.94266114068956),55.94266114,-3.188989747,library
Heriot-Watt University,POINT (-3.32290789027479 55.91089126958331),55.91089127,-3.32290789,university
Currie Community High School,POINT (-3.321238960816955 55.89629569479934),55.89629569,-3.321238961,school
EDETA Training Services,POINT (-3.1045249796631564 55.936283947102964),55.93628395,-3.10452498,school
,POINT (-3.3022106196819756 55.919507539937754),55.91950754,-3.30221062,commercial
,POINT (-3.2901870417905643 55.931961855616755),55.93196186,-3.290187042,school
Craigour Park Primary School,POINT (-3.1350864241212775 55.91279733873196),55.91279734,-3.135086424,school
Liberton Primary School,POINT (-3.1617460133259203 55.92278609770206),55.9227861,-3.161746013,school
Astley Ainslie Hospital,POINT (-3.198237379463264 55.92901441876509),55.92901442,-3.198237379,hospital
James Gillespie's High School,POINT (-3.2001371228401543 55.936629818296446),55.93662982,-3.200137123,school
George Watson's College,POINT (-3.2184523657996573 55.92954816287708),55.92954816,-3.218452366,school
South Morningside Primary School,POINT (-3.212312889200762 55.921447845658115),55.92144785,-3.212312889,school
Fettes College,POINT (-3.2273969120067947 55.964720631537546),55.96472063,-3.227396912,school
Moredun Library,POINT (-3.1349496316016907 55.91345708854279),55.91345709,-3.134949632,library
Murrayburn Primary School,POINT (-3.2815255230405427 55.92244893401498),55.92244893,-3.281525523,school
The Flora Stevenson Primary School,POINT (-3.2248340625724596 55.95800006290149),55.95800006,-3.224834063,school
Firrhill High School,POINT (-3.236387153289031 55.915209012764024),55.91520901,-3.236387153,school
Spire Murrayfield Hospital,POINT (-3.2642849204760793 55.943761469174625),55.94376147,-3.26428492,hospital
,POINT (-3.25068034944452 55.97346234377335),55.97346234,-3.250680349,school
Craigroyston Community High School,POINT (-3.2549694696085876 55.97340853315965),55.97340853,-3.25496947,school
George Heriot's School,POINT (-3.194495973581843 55.94601850529419),55.94601851,-3.194495974,school
Castlebrae Community High School,POINT (-3.1359392492632403 55.93401845797866),55.93401846,-3.135939249,school
University of Edinburgh - King's Buildings Campus,POINT (-3.1746658057199846 55.92275610373322),55.9227561,-3.174665806,university
University of Edinburgh,POINT (-3.1880773795571002 55.94382142872845),55.94382143,-3.18807738,university
Hermitage Park Primary School,POINT (-3.1616019554240946 55.96550097248257),55.96550097,-3.161601955,school
Leith Academy,POINT (-3.1656822096279016 55.96581271878211),55.96581272,-3.16568221,school
Lorne Primary School,POINT (-3.1745939066218622 55.9660732479301),55.96607325,-3.174593907,school
Fountainbridge Library,POINT (-3.218358857201007 55.940107818190256),55.94010782,-3.218358857,library
Drummond Community High School,POINT (-3.19014090077732 55.96051884415331),55.96051884,-3.190140901,school
Stewart's Melville College,POINT (-3.2271918592607007 55.953951031567875),55.95395103,-3.227191859,school
Craigentinny Primary School,POINT (-3.144027159176152 55.95989658183913),55.95989658,-3.144027159,school
St Ninian's RC Primary School,POINT (-3.1501312385190254 55.96047022310154),55.96047022,-3.150131239,school
Bruntsfield Primary School,POINT (-3.2104686773700544 55.93731601061623),55.93731601,-3.210468677,school
Currie Library,POINT (-3.311059707248593 55.89609792060965),55.89609792,-3.311059707,library
Currie Primary School,POINT (-3.3124645116709384 55.89765540208553),55.8976554,-3.312464512,school
Tynecastle High School,POINT (-3.229695520042736 55.94003635266298),55.94003635,-3.22969552,school
University of Edinburgh - High School Yards,POINT (-3.1836487147191055 55.94842786388321),55.94842786,-3.183648715,university
James Gillespie's Primary School,POINT (-3.2015967853166374 55.93697284637834),55.93697285,-3.201596785,school
Edinburgh Napier University - Craiglockhart Campus,POINT (-3.239711183275301 55.91840635149083),55.91840635,-3.239711183,university
St Peter's RC Primary School,POINT (-3.204512686729157 55.92929158535858),55.92929159,-3.204512687,school
Castleview Primary School,POINT (-3.1363946412562673 55.93011752149636),55.93011752,-3.136394641,school
Gracemount High School,POINT (-3.152014206865897 55.90443404322884),55.90443404,-3.152014207,school
Buckstone Primary School,POINT (-3.1957864970329304 55.90568831669771),55.90568832,-3.195786497,school
Liberton High School,POINT (-3.1529298687275484 55.91467425739395),55.91467426,-3.152929869,school
,POINT (-3.280517419706985 55.95233346392666),55.95233346,-3.28051742,school
Map Library,POINT (-3.179831189475281 55.93663050768563),55.93663051,-3.179831189,library
Edinburgh International Conference Centre (EICC),POINT (-3.209597698150639 55.94617437867845),55.94617438,-3.209597698,commercial
Exchange Crescent,POINT (-3.2085861288513366 55.94727055263965),55.94727055,-3.208586129,commercial
Edinburgh One,POINT (-3.2074565726969277 55.94601335028533),55.94601335,-3.207456573,commercial
University of Edinburgh - Lauriston Campus,POINT (-3.1986435007418788 55.94572216573812),55.94572217,-3.198643501,university
,POINT (-3.312811017479736 55.9111754633866),55.91117546,-3.312811017,residential
Leith Primary School,POINT (-3.1685309544888294 55.97039797788027),55.97039798,-3.168530954,school
Hays Community Business Centre,POINT (-3.1224221830923296 55.93446599997705),55.934466,-3.122422183,commercial
Prestonfield Primary School,POINT (-3.1588536953109627 55.930961261939764),55.93096126,-3.158853695,school
,POINT (-3.128128791046964 55.93509770054995),55.9350977,-3.128128791,school
,POINT (-3.1190902173702018 55.94018068499834),55.94018068,-3.119090217,residential
Holy Rood RC High School,POINT (-3.1431865773747174 55.9411503126841),55.94115031,-3.143186577,school
Portobello High School,POINT (-3.1123026716724023 55.944656082922485),55.94465608,-3.112302672,school
Brunstane Primary School,POINT (-3.103658591856961 55.94181512000573),55.94181512,-3.103658592,school
Fort Kinnaird Management Suite,POINT (-3.10410485 55.93621439999999),55.9362144,-3.10410485,commercial
,POINT (-3.1201135760018825 55.94782381867989),55.94782382,-3.120113576,residential
The Royal High Primary School,POINT (-3.1403258163712495 55.953844513438334),55.95384451,-3.140325816,school
Queen Margaret University,POINT (-3.0739691670053215 55.9309245867735),55.93092459,-3.073969167,university
Parsons Green Primary School,POINT (-3.1437945144169603 55.94827664038328),55.94827664,-3.143794514,school
,POINT (-3.1343744500000006 55.96655135000001),55.96655135,-3.13437445,commercial
Danderhall Primary School,POINT (-3.1099578798821526 55.915708397257205),55.9157084,-3.10995788,school
Frogston Primary School,POINT (-3.1632667582161185 55.89880790757014),55.89880791,-3.163266758,school
,POINT (-3.1459874359680953 55.91409712510656),55.91409713,-3.145987436,residential
Merchiston Castle School,POINT (-3.2520832095120618 55.91205909956891),55.9120591,-3.25208321,school
Gilmerton Primary School,POINT (-3.138053064227033 55.9074496092762),55.90744961,-3.138053064,school
Southfield House,POINT (-3.1504638858994847 55.90918340189152),55.9091834,-3.150463886,residential
Towerbank Primary School,POINT (-3.1128920200487533 55.954759300957576),55.9547593,-3.11289202,school
Paties Road Pavillion,POINT (-3.2518956478721397 55.91436609565391),55.9143661,-3.251895648,commercial
The Mary Erskine School,POINT (-3.251324576768277 55.95226678446852),55.95226678,-3.251324577,school
Tanfield House,POINT (-3.20198621131976 55.96290976481921),55.96290976,-3.201986211,commercial
,POINT (-3.1734727941590606 55.91173912410653),55.91173912,-3.173472794,residential
Stoneyhill Primary School,POINT (-3.071220323882221 55.93669415994409),55.93669416,-3.071220324,school
,POINT (-3.187007465639212 55.94683192788712),55.94683193,-3.187007466,university
Cameron Smail Library,POINT (-3.32216653072328 55.90876592789616),55.90876593,-3.322166531,library
Craigmount High School,POINT (-3.305946297019421 55.944874930293864),55.94487493,-3.305946297,school
,POINT (-3.167801538791148 55.87540101268967),55.87540101,-3.167801539,commercial
,POINT (-3.1550523244346502 55.878163470532904),55.87816347,-3.155052324,residential
Colinton Primary School,POINT (-3.2367220239613115 55.90826680257433),55.9082668,-3.236722024,school
St Mark's RC Primary School,POINT (-3.2295327050455978 55.91130701290447),55.91130701,-3.229532705,school
Bilston Primary School,POINT (-3.184162493788364 55.86914414351637),55.86914414,-3.184162494,school
Canal View Primary School,POINT (-3.28052646846718 55.91590522521951),55.91590523,-3.280526468,school
inkonpaper;Pirate Studios,POINT (-3.2964029499999996 55.92979269999999),55.9297927,-3.29640295,commercial
Nether Currie Primary School,POINT (-3.302666030296573 55.900203105466666),55.90020311,-3.30266603,school
Sighthill Primary School,POINT (-3.2931938812283756 55.91981410720784),55.91981411,-3.293193881,school
Wester Hailes High School,POINT (-3.2904625318632226 55.917321343639195),55.91732134,-3.290462532,school
Piershill Library,POINT (-3.1422678562276953 55.955037288163524),55.95503729,-3.142267856,library
,POINT (-3.2323112673896235 55.92510181853032),55.92510182,-3.232311267,residential
,POINT (-3.226656375301077 55.9322418343602),55.93224183,-3.226656375,residential
,POINT (-3.2268225294022184 55.93211703939396),55.93211704,-3.226822529,residential
,POINT (-3.2326818740289096 55.926835385538325),55.92683539,-3.232681874,commercial
Woodburn House NHS,POINT (-3.202417233501478 55.92747548723899),55.92747549,-3.202417234,hospital
Royal Blind School,POINT (-3.2025408682260657 55.929059709940134),55.92905971,-3.202540868,school
,POINT (-3.218125006985412 55.93382458251706),55.93382458,-3.218125007,residential
,POINT (-3.117997605405907 55.94014958264076),55.94014958,-3.117997605,residential
Duddingston Primary School,POINT (-3.1308090116933744 55.947961022349986),55.94796102,-3.130809012,school
,POINT (-3.1485381254371267 55.920016373268155),55.92001637,-3.148538125,residential
East Craigs Primary School,POINT (-3.301556680792216 55.95143691672213),55.95143692,-3.301556681,school
Western General Hospital (Edinburgh),POINT (-3.235026189043625 55.962298482728784),55.96229848,-3.235026189,hospital
,POINT (-3.2204542980356163 55.931820499222205),55.9318205,-3.220454298,residential
,POINT (-3.2182635608621886 55.9355836998282),55.9355837,-3.218263561,residential
,POINT (-3.2183017588422103 55.93483618299418),55.93483618,-3.218301759,residential
Royal Mile Primary School,POINT (-3.177277892236827 55.951718490146405),55.95171849,-3.177277892,school
Scottish Poetry Library,POINT (-3.1780988657695084 55.95144549737081),55.9514455,-3.178098866,library
Sugarhouse,POINT (-3.1799669737258958 55.951064492103846),55.95106449,-3.179966974,residential
Central Library,POINT (-3.1924953931233393 55.94828811614892),55.94828812,-3.192495393,library
National Library of Scotland,POINT (-3.1917015733152065 55.94857470984755),55.94857471,-3.191701573,library
Newington Library,POINT (-3.179735895200157 55.93208040091534),55.9320804,-3.179735895,library
Morningside Library,POINT (-3.209940930678331 55.92889298044169),55.92889298,-3.209940931,library
Balgreen Library,POINT (-3.2484231343317407 55.93725887445561),55.93725887,-3.248423134,library
McDonald Road Library,POINT (-3.1813889588366866 55.961345622416246),55.96134562,-3.181388959,library
Panmure St Anne's,POINT (-3.185107077628694 55.94913413433188),55.94913413,-3.185107078,school
,POINT (-3.122663005636475 55.93046132113054),55.93046132,-3.122663006,residential
,POINT (-3.1230823037241064 55.93062146502312),55.93062147,-3.123082304,residential
Plumbing Trade Supplies,POINT (-3.174259748654929 55.96177760646891),55.96177761,-3.174259749,commercial
,POINT (-3.192814218090278 55.9489829570275),55.94898296,-3.192814218,commercial
Lloyds Banking Group,POINT (-3.293826553441373 55.927873846733746),55.92787385,-3.293826553,commercial
Trinity Academy,POINT (-3.195046258011767 55.976627728721816),55.97662773,-3.195046258,school
,POINT (-3.223549864265773 55.924307675399724),55.92430768,-3.223549864,residential
,POINT (-3.2223131889604217 55.924333074688626),55.92433307,-3.222313189,residential
,POINT (-3.2231471060886445 55.93061976025939),55.93061976,-3.223147106,residential
,POINT (-3.203816271487973 55.97311729637534),55.9731173,-3.203816271,residential
,POINT (-3.2047039 55.97309250000001),55.9730925,-3.2047039,residential
,POINT (-3.2043861251910593 55.97338398905405),55.97338399,-3.204386125,residential
,POINT (-3.2044026077622942 55.925695724454165),55.92569572,-3.204402608,residential
,POINT (-3.2077392512744067 55.94493711228067),55.94493711,-3.207739251,commercial
,POINT (-3.213561052525273 55.97451667425521),55.97451667,-3.213561053,residential
,POINT (-3.2120993336145753 55.971445131473196),55.97144513,-3.212099334,residential
,POINT (-3.212838691973606 55.97165336901085),55.97165337,-3.212838692,residential
,POINT (-3.2057502913848355 55.976402885612345),55.97640289,-3.205750291,residential
,POINT (-3.1807326447607913 55.938598735427455),55.93859874,-3.180732645,residential
,POINT (-3.180339910407106 55.93792938828596),55.93792939,-3.18033991,residential
,POINT (-3.1789354673228507 55.938958031899),55.93895803,-3.178935467,residential
,POINT (-3.1790057403286336 55.93903254643596),55.93903255,-3.17900574,residential
,POINT (-3.1788848009369497 55.9388965469483),55.93889655,-3.178884801,residential
,POINT (-3.178831939198286 55.93883480539218),55.93883481,-3.178831939,residential
,POINT (-3.178522529930482 55.93908366174433),55.93908366,-3.17852253,residential
,POINT (-3.178603667253734 55.93856534727373),55.93856535,-3.178603667,residential
,POINT (-3.1787786962338487 55.938771909813475),55.93877191,-3.178778696,residential
,POINT (-3.17868503788889 55.938646340988406),55.93864634,-3.178685038,residential
,POINT (-3.1787260859989903 55.9387090428188),55.93870904,-3.178726086,residential
,POINT (-3.17858367621162 55.93872462197329),55.93872462,-3.178583676,residential
,POINT (-3.1807594815029883 55.938756474450045),55.93875647,-3.180759482,residential
,POINT (-3.181044735357569 55.93888026661514),55.93888027,-3.181044735,residential
,POINT (-3.180810723966888 55.938893172828244),55.93889317,-3.180810724,residential
,POINT (-3.181274972035803 55.938872538216614),55.93887254,-3.181274972,residential
,POINT (-3.181552329393878 55.9388642843853),55.93886428,-3.181552329,residential
,POINT (-3.2041129335696596 55.95820474575977),55.95820475,-3.204112934,residential
,POINT (-3.183972910480429 55.943708303917674),55.9437083,-3.18397291,residential
,POINT (-3.183746471936554 55.943719162387275),55.94371916,-3.183746472,residential
,POINT (-3.1841701059720635 55.94372821218209),55.94372821,-3.184170106,residential
,POINT (-3.1843919423930194 55.94372789230137),55.94372789,-3.184391942,residential
,POINT (-3.122704015979939 55.93022395050515),55.93022395,-3.122704016,residential
,POINT (-3.1437980827922387 55.92994470880955),55.92994471,-3.143798083,residential
,POINT (-3.143980243652076 55.930091932088025),55.93009193,-3.143980244,residential
,POINT (-3.143659428766873 55.92959548608532),55.92959549,-3.143659429,residential
,POINT (-3.1437599102737224 55.92975174791749),55.92975175,-3.14375991,residential
,POINT (-3.14409092950093 55.930257957167754),55.93025796,-3.14409093,residential
,POINT (-3.1441762367853796 55.93038785511577),55.93038786,-3.144176237,residential
,POINT (-3.144270037438114 55.93052398615701),55.93052399,-3.144270037,residential
,POINT (-3.1443688653795405 55.93066589682986),55.9306659,-3.144368865,residential
,POINT (-3.1445992981697404 55.93100803165104),55.93100803,-3.144599298,residential
,POINT (-3.1448775974935224 55.9314172421401),55.93141724,-3.144877597,residential
,POINT (-3.1447655890297965 55.93125540228264),55.9312554,-3.144765589,residential
,POINT (-3.144970425421868 55.93158166292051),55.93158166,-3.144970425,residential
,POINT (-3.1854774785923947 55.94280191894492),55.94280192,-3.185477479,residential
,POINT (-3.184688404190594 55.942925847395784),55.94292585,-3.184688404,residential
,POINT (-3.1848079427619775 55.942907887506045),55.94290789,-3.184807943,residential
,POINT (-3.185237705624293 55.9428420824414),55.94284208,-3.185237706,residential
,POINT (-3.1850016414402127 55.94287767074556),55.94287767,-3.185001641,residential
,POINT (-3.184655523461671 55.94281575202284),55.94281575,-3.184655523,residential
,POINT (-3.139864931430797 55.931011259846294),55.93101126,-3.139864931,residential
,POINT (-3.1399102273178543 55.931087086652575),55.93108709,-3.139910227,residential
,POINT (-3.139443006403805 55.93033434741974),55.93033435,-3.139443006,residential
,POINT (-3.1392989436249783 55.93022906750869),55.93022907,-3.139298944,residential
,POINT (-3.139634233276611 55.93063666537606),55.93063667,-3.139634233,residential
,POINT (-3.1395942089451805 55.93057232472171),55.93057232,-3.139594209,residential
,POINT (-3.1395279044993623 55.93046511188936),55.93046511,-3.139527904,residential
,POINT (-3.186026001414102 55.9427147029877),55.9427147,-3.186026001,residential
,POINT (-3.186465852110353 55.94264749950706),55.9426475,-3.186465852,residential
,POINT (-3.186244238045378 55.942680787891355),55.94268079,-3.186244238,residential
,POINT (-3.1858158361558435 55.94274159652429),55.9427416,-3.185815836,residential
,POINT (-3.1824954783976955 55.93611246973909),55.93611247,-3.182495478,residential
,POINT (-3.1824854817613133 55.936090089903864),55.93609009,-3.182485482,residential
,POINT (-3.1822502999999984 55.93595330000001),55.9359533,-3.1822503,residential
,POINT (-3.1822589174248925 55.93577452088814),55.93577452,-3.182258917,residential
Sciennes Primary School,POINT (-3.187666428074663 55.93837778908843),55.93837779,-3.187666428,school
Zoo Entrance,POINT (-3.2687405413622104 55.942402687879884),55.94240269,-3.268740541,commercial
,POINT (-3.1845323973769695 55.97209694328067),55.97209694,-3.184532397,commercial
,POINT (-3.1843478846842683 55.97212946774224),55.97212947,-3.184347885,commercial
,POINT (-3.18416331814035 55.972161939575805),55.97216194,-3.184163318,commercial
,POINT (-3.183978804374045 55.97219446108641),55.97219446,-3.183978804,commercial
Broughton High School,POINT (-3.221957866648866 55.960932686834404),55.96093269,-3.221957867,school
,POINT (-3.171273856900468 55.97908607764654),55.97908608,-3.171273857,commercial
,POINT (-3.19464559931783 55.94359317816411),55.94359318,-3.194645599,residential
West Mains Road Postgraduate Accommodation,POINT (-3.1778728399595177 55.92429414425084),55.92429414,-3.17787284,residential
,POINT (-3.19965290345733 55.92474966240837),55.92474966,-3.199652903,residential
,POINT (-3.202368692182908 55.97702607299658),55.97702607,-3.202368692,residential
,POINT (-3.1987321722277517 55.976497647636876),55.97649765,-3.198732172,residential
,POINT (-3.1982504831756624 55.979496486096885),55.97949649,-3.198250483,residential
,POINT (-3.200457305807864 55.97983033860349),55.97983034,-3.200457306,residential
,POINT (-3.1986381356494924 55.980135485449864),55.98013549,-3.198638136,residential
,POINT (-3.1692628466635533 55.91773211518038),55.91773212,-3.169262847,residential
,POINT (-3.177959817732142 55.91424608463739),55.91424608,-3.177959818,residential
,POINT (-3.17671276215306 55.914646795606245),55.9146468,-3.176712762,residential
,POINT (-3.177497181352742 55.913964887026516),55.91396489,-3.177497181,residential
,POINT (-3.1766623377988528 55.91442047798424),55.91442048,-3.176662338,residential
,POINT (-3.1770482436886542 55.91465409243137),55.91465409,-3.177048244,residential
,POINT (-3.1771692422681195 55.91441924181632),55.91441924,-3.177169242,residential
,POINT (-3.177400619543781 55.91436304275599),55.91436304,-3.17740062,residential
,POINT (-3.0877356578475634 55.91089851852475),55.91089852,-3.087735658,commercial
The Royal High School,POINT (-3.2849652494790313 55.96369494111103),55.96369494,-3.284965249,school
Dunedin School,POINT (-3.1664022907315568 55.92545629037371),55.92545629,-3.166402291,school
,POINT (-3.222592998410743 55.97118186557134),55.97118187,-3.222592998,residential
,POINT (-3.22232343113038 55.97067266757265),55.97067267,-3.222323431,residential
,POINT (-3.2217969119167322 55.97059700987111),55.97059701,-3.221796912,residential
,POINT (-3.2232058775273864 55.9712914537831),55.97129145,-3.223205878,residential
,POINT (-3.219693835657048 55.97164409036582),55.97164409,-3.219693836,residential
,POINT (-3.222783899815566 55.97580888238036),55.97580888,-3.2227839,residential
,POINT (-3.225233825437293 55.9806029917491),55.98060299,-3.225233825,residential
,POINT (-3.23146076220293 55.97921988887667),55.97921989,-3.231460762,commercial
,POINT (-3.2320446386541253 55.97843649549629),55.9784365,-3.232044639,commercial
,POINT (-3.2317111864962964 55.97898110312759),55.9789811,-3.231711186,commercial
Rabbie's Trail Burners,POINT (-3.231888857659701 55.98342741247798),55.98342741,-3.231888858,commercial
,POINT (-3.247059375533351 55.9745761511158),55.97457615,-3.247059376,residential
,POINT (-3.2481866206459755 55.97338802029686),55.97338802,-3.248186621,residential
,POINT (-3.3208250296344475 55.9378977539626),55.93789775,-3.32082503,commercial
,POINT (-3.128382093008521 55.93059251490114),55.93059251,-3.128382093,residential
ION Concept Systems,POINT (-3.195179864255229 55.96568215550106),55.96568216,-3.195179864,residential
,POINT (-3.242674722423289 55.925099134460226),55.92509913,-3.242674722,residential
,POINT (-3.241999403722017 55.9250281638812),55.92502816,-3.241999404,residential
University of Edinburgh - Pleasance,POINT (-3.181016304012657 55.947977121309606),55.94797712,-3.181016304,university
Newtongrange Library,POINT (-3.0658300500000006 55.86672505),55.86672505,-3.06583005,library
,POINT (-3.2292012576329765 55.92786338556366),55.92786339,-3.229201258,residential
,POINT (-3.2011030962010727 55.95338352005349),55.95338352,-3.201103096,commercial
Eagle Buildings,POINT (-3.195919888873296 55.95306267264751),55.95306267,-3.195919889,commercial
,POINT (-3.192941992939562 55.957100864092574),55.95710086,-3.192941993,commercial
,POINT (-3.2516404464364514 55.909181864573426),55.90918186,-3.251640446,residential
,POINT (-3.2512735000008193 55.90969532929498),55.90969533,-3.2512735,residential
Booker,POINT (-3.0788534999999997 55.9466794),55.9466794,-3.0788535,commercial
,POINT (-3.177479072643982 55.939198431252095),55.93919843,-3.177479073,residential
,POINT (-3.177181670268517 55.93922866176302),55.93922866,-3.17718167,residential
,POINT (-3.1777802897948257 55.93914742074646),55.93914742,-3.17778029,residential
,POINT (-3.1780973944704223 55.939104915518136),55.93910492,-3.178097394,residential
,POINT (-3.1783439637829916 55.938985037469465),55.93898504,-3.178343964,residential
,POINT (-3.1767691007313053 55.9388655742199),55.93886557,-3.176769101,residential
The Edinburgh Academy,POINT (-3.2054679150691316 55.960788993602655),55.96078899,-3.205467915,school
Stockbridge Primary School,POINT (-3.2076402994056528 55.95944639732838),55.9594464,-3.207640299,school
,POINT (-3.19070511904948 55.87114322924934),55.87114323,-3.190705119,residential
,POINT (-3.1902119125255393 55.87105970866284),55.87105971,-3.190211913,residential
,POINT (-3.1894702526382375 55.869372147439876),55.86937215,-3.189470253,residential
,POINT (-3.1900098634689127 55.869717813594335),55.86971781,-3.190009863,residential
,POINT (-3.190427480206368 55.87035914008308),55.87035914,-3.19042748,residential
,POINT (-3.2088121499999973 55.970357150000005),55.97035715,-3.20881215,residential
,POINT (-3.2151446 55.9667487),55.9667487,-3.2151446,residential
,POINT (-3.2197570185550326 55.96805374528392),55.96805375,-3.219757019,residential
,POINT (-3.177608088713216 55.953007014784085),55.95300701,-3.177608089,residential
Burger King,POINT (-3.2421422316296282 55.95836834786313),55.95836835,-3.242142232,commercial
Rowanfield Special School,POINT (-3.2455346529145963 55.96215765203318),55.96215765,-3.245534653,school
,POINT (-3.3184775122897983 55.91808344111673),55.91808344,-3.318477512,residential
,POINT (-3.3157672605761483 55.91816166863098),55.91816167,-3.315767261,residential
,POINT (-3.3159907106636966 55.918434517833845),55.91843452,-3.315990711,residential
,POINT (-3.3175769500000003 55.91812984999999),55.91812985,-3.31757695,residential
,POINT (-3.3151506095518064 55.91863767595582),55.91863768,-3.31515061,residential
,POINT (-3.3143215266736274 55.91835903900554),55.91835904,-3.314321527,residential
,POINT (-3.3147595400028873 55.91866113976554),55.91866114,-3.31475954,residential
,POINT (-3.3181169029176605 55.91813227812223),55.91813228,-3.318116903,residential
,POINT (-3.3169412951622035 55.91826446149144),55.91826446,-3.316941295,residential
,POINT (-3.3152887845611256 55.91826594898861),55.91826595,-3.315288785,residential
,POINT (-3.1563660810434357 55.97238062962703),55.97238063,-3.156366081,commercial
,POINT (-3.155843077573396 55.97308587895317),55.97308588,-3.155843078,commercial
,POINT (-3.1558635824368277 55.97229874454381),55.97229874,-3.155863582,commercial
,POINT (-3.1569169985625845 55.972531967928816),55.97253197,-3.156916999,commercial
,POINT (-3.1549205405449188 55.97226425308208),55.97226425,-3.154920541,commercial
,POINT (-3.1535748186264 55.971442154422974),55.97144215,-3.153574819,commercial
,POINT (-3.1539104705615753 55.97183235411174),55.97183235,-3.153910471,commercial
,POINT (-3.154349043261488 55.971687550964056),55.97168755,-3.154349043,commercial
,POINT (-3.1560176325274054 55.972652200012014),55.9726522,-3.156017633,commercial
,POINT (-3.152415920898593 55.971429215818425),55.97142922,-3.152415921,commercial
,POINT (-3.1519996132664554 55.97180115094796),55.97180115,-3.151999613,commercial
FirstStage Studios,POINT (-3.157846211565926 55.97567986366358),55.97567986,-3.157846212,commercial
,POINT (-3.157147031456372 55.97348020917813),55.97348021,-3.157147031,commercial
,POINT (-3.158777670749876 55.97331356434206),55.97331356,-3.158777671,commercial
,POINT (-3.1598752543971824 55.97380348424846),55.97380348,-3.159875254,commercial
,POINT (-3.1567727708216813 55.972946021711884),55.97294602,-3.156772771,commercial
,POINT (-3.155678884576809 55.97494689806409),55.9749469,-3.155678885,commercial
,POINT (-3.1645193954264674 55.97662909324891),55.97662909,-3.164519395,commercial
,POINT (-3.1599741616613017 55.97454032881363),55.97454033,-3.159974162,commercial
,POINT (-3.1588194628183666 55.97490687462653),55.97490687,-3.158819463,commercial
St Mary's RC Primary School (Leith),POINT (-3.159862063223514 55.971607186495106),55.97160719,-3.159862063,school
,POINT (-3.1629690447449583 55.96783974040544),55.96783974,-3.162969045,residential
,POINT (-3.153951648906062 55.97268449298071),55.97268449,-3.153951649,commercial
,POINT (-3.1574550674636943 55.97281048264808),55.97281048,-3.157455067,commercial
,POINT (-3.157269885030492 55.97295969532977),55.9729597,-3.157269885,commercial
,POINT (-3.1573320101824875 55.97310345208635),55.97310345,-3.15733201,commercial
,POINT (-3.182084972923741 55.97284629799397),55.9728463,-3.182084973,commercial
,POINT (-3.1695333154581338 55.95957955819305),55.95957956,-3.169533315,commercial
,POINT (-3.1818233507629055 55.97326588902705),55.97326589,-3.181823351,commercial
,POINT (-3.1831737906002617 55.97235635168365),55.97235635,-3.183173791,commercial
,POINT (-3.1824888099849966 55.972363996916116),55.972364,-3.18248881,commercial
Elgin House,POINT (-3.1717432278126583 55.95788101619884),55.95788102,-3.171743228,commercial
Tollcross Primary School,POINT (-3.2064752178361986 55.94339683406675),55.94339683,-3.206475218,school
,POINT (-3.161390870221736 55.972209022821104),55.97220902,-3.16139087,commercial
Prospect Bank School,POINT (-3.156771179232191 55.967680894166286),55.96768089,-3.156771179,school
Abbeyhill Primary School,POINT (-3.169838249806311 55.95613412878952),55.95613413,-3.16983825,school
Cruise Liner Terminal,POINT (-3.1816283911102388 55.9804424470079),55.98044245,-3.181628391,commercial
,POINT (-3.2049092900857317 55.97775185155627),55.97775185,-3.20490929,residential
,POINT (-3.1932269461084006 55.97721925097005),55.97721925,-3.193226946,residential
,POINT (-3.196048235364785 55.97852332231731),55.97852332,-3.196048235,residential
,POINT (-3.1961752 55.9794835),55.9794835,-3.1961752,residential
,POINT (-3.1632801500000007 55.9674884),55.9674884,-3.16328015,residential
,POINT (-3.155537589790355 55.96934709648022),55.9693471,-3.15553759,residential
,POINT (-3.1518563899145513 55.96899875661361),55.96899876,-3.15185639,residential
,POINT (-3.158152021356588 55.96744944899328),55.96744945,-3.158152021,residential
,POINT (-3.155462053303455 55.96905097451494),55.96905097,-3.155462053,residential
Abbeymount Techbase,POINT (-3.172376313207843 55.956839320869925),55.95683932,-3.172376313,commercial
,POINT (-3.15390955 55.968762749999996),55.96876275,-3.15390955,residential
,POINT (-3.1597611008883373 55.965803933434024),55.96580393,-3.159761101,residential
,POINT (-3.1653396500000004 55.96887),55.96887,-3.16533965,residential
am edinburgh,POINT (-3.242306300393747 55.97710581723711),55.97710582,-3.2423063,residential
,POINT (-3.2003728980694093 55.97135285376311),55.97135285,-3.200372898,residential
,POINT (-3.204995224392661 55.96740559067526),55.96740559,-3.204995224,residential
St Mary's RC Primary School,POINT (-3.187549931414832 55.95951464702647),55.95951465,-3.187549931,school
,POINT (-3.1929637499999997 55.971451599999995),55.9714516,-3.19296375,residential
,POINT (-3.1869752520063113 55.97196967603939),55.97196968,-3.186975252,commercial
,POINT (-3.188647591054017 55.97281731400818),55.97281731,-3.188647591,residential
,POINT (-3.1864860834237105 55.97230258968256),55.97230259,-3.186486083,commercial
,POINT (-3.1891256 55.97269099999999),55.972691,-3.1891256,residential
Royal Infirmary of Edinburgh (Little France),POINT (-3.1348556907200806 55.92214178202273),55.92214178,-3.134855691,hospital
Leith Walk Primary School,POINT (-3.179226225500243 55.96019702267894),55.96019702,-3.179226226,school
,POINT (-3.2346882810504907 55.965622970869056),55.96562297,-3.234688281,residential
,POINT (-3.234050899982149 55.964980749400496),55.96498075,-3.2340509,residential
Primark,POINT (-3.19886793615095 55.95210163709078),55.95210164,-3.198867936,commercial
,POINT (-3.3135978331434712 55.91220519625568),55.9122052,-3.313597833,residential
,POINT (-3.094420758094223 55.939661882215745),55.93966188,-3.094420758,residential
"St. George's School, Edinburgh",POINT (-3.232223558005124 55.95056387301484),55.95056387,-3.232223558,school
Exchange Place 3,POINT (-3.207913137695422 55.944381042738456),55.94438104,-3.207913138,commercial
Gorgie Mills Special School,POINT (-3.2394173898810283 55.93540736152278),55.93540736,-3.23941739,school
Balgreen Primary School,POINT (-3.2483129769375347 55.93762367330524),55.93762367,-3.248312977,school
,POINT (-3.2112681073245173 55.94107555509758),55.94107556,-3.211268107,residential
Nautical House,POINT (-3.17662832199734 55.9776931618458),55.97769316,-3.176628322,commercial
,POINT (-3.1797041777934134 55.97822348862692),55.97822349,-3.179704178,residential
,POINT (-3.178862469051514 55.97807814284072),55.97807814,-3.178862469,residential
Britannia Spice,POINT (-3.180040443314455 55.97829382584493),55.97829383,-3.180040443,commercial
,POINT (-3.186133446565093 55.96003116144743),55.96003116,-3.186133447,residential
,POINT (-3.1886398644516074 55.95990319120186),55.95990319,-3.188639864,residential
Enterprise,POINT (-3.13592880200791 55.94667009442987),55.94667009,-3.135928802,commercial
Preston Street Primary School,POINT (-3.176298934880774 55.939876857438826),55.93987686,-3.176298935,school
Norton Park,POINT (-3.166801789553193 55.96133908287195),55.96133908,-3.16680179,commercial
,POINT (-3.213330834591167 55.93947265400612),55.93947265,-3.213330835,residential
Exchange Place 1,POINT (-3.2067936139125455 55.944353270621015),55.94435327,-3.206793614,commercial
Davidson's Mains Primary School,POINT (-3.269054737546291 55.963822752103376),55.96382275,-3.269054738,school
,POINT (-3.1974681800328897 55.9522084560271),55.95220846,-3.19746818,commercial
,POINT (-3.188572483984616 55.95830077949279),55.95830078,-3.188572484,residential
,POINT (-3.1877921783585466 55.9584104925854),55.95841049,-3.187792178,residential
Dalry Primary School,POINT (-3.2230709697603146 55.942144572747246),55.94214457,-3.22307097,school
Roseburn Primary School,POINT (-3.236779123887089 55.943571160126425),55.94357116,-3.236779124,school
Children's Beds Home,POINT (-3.299574297857734 55.929826979712224),55.92982698,-3.299574298,commercial
Ferryhill Primary School,POINT (-3.250866473037282 55.96316576508113),55.96316577,-3.250866473,school
Blackhall Primary School,POINT (-3.2620300792098345 55.95535291267435),55.95535291,-3.262030079,school
,POINT (-3.18820435 55.97664095),55.97664095,-3.18820435,residential
,POINT (-3.1932563972571693 55.98132019461783),55.98132019,-3.193256397,residential
,POINT (-3.188667612035918 55.97467978145637),55.97467978,-3.188667612,residential
,POINT (-3.1932959999999997 55.9742387),55.9742387,-3.193296,residential
,POINT (-3.2471802956718276 55.92338169653737),55.9233817,-3.247180296,commercial
,POINT (-3.2149570509440655 55.9714679617165),55.97146796,-3.214957051,residential
,POINT (-3.214908035220129 55.97130163352437),55.97130163,-3.214908035,residential
,POINT (-3.20442462400761 55.97249707027206),55.97249707,-3.204424624,residential
,POINT (-3.204930399999999 55.972563650000005),55.97256365,-3.2049304,residential
,POINT (-3.203963659992326 55.97256893477698),55.97256893,-3.20396366,residential
,POINT (-3.203124357748173 55.97210648810878),55.97210649,-3.203124358,residential
,POINT (-3.1843579771913375 55.973766000946505),55.973766,-3.184357977,commercial
,POINT (-3.1850486923671926 55.97329044693424),55.97329045,-3.185048692,residential
,POINT (-3.2528084535094637 55.93846631390376),55.93846631,-3.252808454,commercial
,POINT (-3.241741475499484 55.93938784899532),55.93938785,-3.241741475,commercial
Jenners Depository,POINT (-3.25218228721577 55.93865569365333),55.93865569,-3.252182287,commercial
Oaklands School,POINT (-3.2521348017082348 55.96727536455),55.96727536,-3.252134802,school
Craigroyston Primary School,POINT (-3.2544580216707026 55.96826410402757),55.9682641,-3.254458022,school
,POINT (-3.226775956704709 55.906867750709495),55.90686775,-3.226775957,commercial
,POINT (-3.177689199754461 55.87242131548291),55.87242132,-3.1776892,residential
,POINT (-3.1778881780870556 55.87113985250818),55.87113985,-3.177888178,commercial
,POINT (-3.1773953549155665 55.871935668974864),55.87193567,-3.177395355,residential
,POINT (-3.176925629263909 55.87202642555222),55.87202643,-3.176925629,residential
,POINT (-3.177146107751975 55.87214929982552),55.8721493,-3.177146108,residential
,POINT (-3.1771575009614303 55.87168967051371),55.87168967,-3.177157501,residential
,POINT (-3.211498301542263 55.95869831610236),55.95869832,-3.211498302,residential
Exchange Place 2,POINT (-3.206809463466248 55.944755650925),55.94475565,-3.206809463,commercial
Caledonian Exchange,POINT (-3.210102815223265 55.947618344829166),55.94761834,-3.210102815,commercial
Exchange Tower,POINT (-3.2109410249047783 55.947266519477864),55.94726652,-3.210941025,commercial
Braidburn School,POINT (-3.2357721376411797 55.91395515587729),55.91395516,-3.235772138,school
Oxgangs Primary School,POINT (-3.235925870051802 55.912236418778114),55.91223642,-3.23592587,school
Pilrig Park School,POINT (-3.1802751500351985 55.96725871677938),55.96725872,-3.18027515,school
,POINT (-3.182115782327616 55.93083820408882),55.9308382,-3.182115782,residential
,POINT (-3.187414581314567 55.92771215205608),55.92771215,-3.187414581,residential
,POINT (-3.187567527344581 55.958726023215014),55.95872602,-3.187567527,residential
,POINT (-3.187453122584838 55.95809491594851),55.95809492,-3.187453123,residential
,POINT (-3.191462454192629 55.961188970351785),55.96118897,-3.191462454,residential
,POINT (-3.2119051622706594 55.950314807853054),55.95031481,-3.211905162,residential
,POINT (-3.183455797066285 55.9722223141145),55.97222231,-3.183455797,commercial
,POINT (-3.194069681978123 55.96300074214549),55.96300074,-3.194069682,residential
,POINT (-3.190576142307375 55.96463502761751),55.96463503,-3.190576142,residential
,POINT (-3.1934533082666663 55.96203598426666),55.96203598,-3.193453308,residential
,POINT (-3.1799712487582905 55.96155489949197),55.9615549,-3.179971249,commercial
,POINT (-3.187646439365437 55.9657014310949),55.96570143,-3.187646439,commercial
,POINT (-3.219235567648714 55.9247951610268),55.92479516,-3.219235568,residential
Campie Primary School,POINT (-3.0637192123758386 55.941444847253436),55.94144485,-3.063719212,school
,POINT (-3.199966919160103 55.973184751353806),55.97318475,-3.199966919,residential
,POINT (-3.2003593500000003 55.97324330000001),55.9732433,-3.20035935,residential
,POINT (-3.200178042692011 55.97321192379272),55.97321192,-3.200178043,residential
,POINT (-3.1743895999999996 55.978107550000004),55.97810755,-3.1743896,commercial
Venterra Group PLC,POINT (-3.2015265043542076 55.95609375185712),55.95609375,-3.201526504,commercial
,POINT (-3.25611765 55.929075149999996),55.92907515,-3.25611765,residential
,POINT (-3.256261509816005 55.928847482883114),55.92884748,-3.25626151,residential
,POINT (-3.2295299735448073 55.928023515090445),55.92802352,-3.229529974,commercial
,POINT (-3.1838760866328455 55.97533400034356),55.975334,-3.183876087,residential
,POINT (-3.1821369740418444 55.973519759249925),55.97351976,-3.182136974,commercial
,POINT (-3.183673334630398 55.975108766408376),55.97510877,-3.183673335,residential
,POINT (-3.183785188431433 55.97524089714851),55.9752409,-3.183785188,residential
,POINT (-3.1827427332902833 55.9745724340821),55.97457243,-3.182742733,commercial
,POINT (-3.183554518403582 55.974979153749004),55.97497915,-3.183554518,residential
,POINT (-3.17046209317996 55.96099477288831),55.96099477,-3.170462093,commercial
,POINT (-3.1701849359422813 55.96062513778806),55.96062514,-3.170184936,commercial
,POINT (-3.172195669574944 55.961261800974526),55.9612618,-3.17219567,commercial
,POINT (-3.1722072818327067 55.96100616979091),55.96100617,-3.172207282,commercial
,POINT (-3.2786118510491047 55.93625077912902),55.93625078,-3.278611851,commercial
,POINT (-3.1687851042925095 55.97231099043445),55.97231099,-3.168785104,commercial
,POINT (-3.1940823000000003 55.900256250000005),55.90025625,-3.1940823,residential
,POINT (-3.2056050028627867 55.94782210205103),55.9478221,-3.205605003,residential
Saltire Court,POINT (-3.2042074006371632 55.9475689949881),55.94756899,-3.204207401,commercial
St Augustine's RC High School,POINT (-3.2921283362314573 55.93241252298582),55.93241252,-3.292128336,school
Forrester High School,POINT (-3.2897946397610833 55.93095540429922),55.9309554,-3.28979464,school
,POINT (-3.1793697914472085 55.934435122205755),55.93443512,-3.179369791,commercial
,POINT (-3.27405784357149 55.928532021437704),55.92853202,-3.274057844,school
,POINT (-3.184758805037851 55.97469676893866),55.97469677,-3.184758805,commercial
,POINT (-3.1843899870936934 55.974738669970286),55.97473867,-3.184389987,residential
,POINT (-3.1850203116105837 55.97459269824228),55.9745927,-3.185020312,commercial
,POINT (-3.1851252380665573 55.97485948739447),55.97485949,-3.185125238,commercial
,POINT (-3.211127797356554 55.93347149794894),55.9334715,-3.211127797,residential
,POINT (-3.2181178986735706 55.9487942860566),55.94879429,-3.218117899,residential
,POINT (-3.2198885346568344 55.97998838883014),55.97998839,-3.219888535,residential
,POINT (-3.205890817231224 55.95872305725578),55.95872306,-3.205890817,residential
,POINT (-3.2480754212470617 55.92786513949013),55.92786514,-3.248075421,commercial
Edinburgh Academy Junior School,POINT (-3.213029220123734 55.96879770382717),55.9687977,-3.21302922,school
,POINT (-3.15702368981783 55.930962197202305),55.9309622,-3.15702369,commercial
,POINT (-3.174271809367429 55.96692190073724),55.9669219,-3.174271809,commercial
,POINT (-3.17411795091155 55.966970960027425),55.96697096,-3.174117951,commercial
,POINT (-3.173816555500946 55.96683783397809),55.96683783,-3.173816556,commercial
,POINT (-3.174650744303588 55.96526818942091),55.96526819,-3.174650744,residential
,POINT (-3.175132870489419 55.96730535849619),55.96730536,-3.17513287,commercial
,POINT (-3.167171326454715 55.97812997160956),55.97812997,-3.167171326,residential
,POINT (-3.1668247547569877 55.977730003734436),55.97773,-3.166824755,residential
,POINT (-3.165811892686754 55.97759211006197),55.97759211,-3.165811893,residential
,POINT (-3.1727765783984925 55.968765380257054),55.96876538,-3.172776578,commercial
,POINT (-3.171836067705513 55.968140020619686),55.96814002,-3.171836068,commercial
,POINT (-3.089502046021891 55.91554520526877),55.91554521,-3.089502046,residential
,POINT (-3.088943732031361 55.91573196261519),55.91573196,-3.088943732,residential
,POINT (-3.089696694526226 55.915124385220096),55.91512439,-3.089696695,residential
,POINT (-3.0882049726660896 55.91578158313265),55.91578158,-3.088204973,residential
,POINT (-3.069239172396825 55.916384136896454),55.91638414,-3.069239172,residential
,POINT (-3.0697633559628614 55.91672310092181),55.9167231,-3.069763356,residential
Millerhill,POINT (-3.0788006921612383 55.915086813569346),55.91508681,-3.078800692,residential
,POINT (-3.0693814570207936 55.91610207562308),55.91610208,-3.069381457,residential
,POINT (-3.078437319014222 55.91530199760391),55.915302,-3.078437319,residential
,POINT (-3.07593797938837 55.91708257644174),55.91708258,-3.075937979,residential
,POINT (-3.1116392536480064 55.911327718918805),55.91132772,-3.111639254,residential
,POINT (-3.1112071318499375 55.91104718419801),55.91104718,-3.111207132,residential
,POINT (-3.2890309986810564 55.9485812654624),55.94858127,-3.289030999,residential
,POINT (-3.304158412617979 55.95188037444159),55.95188037,-3.304158413,commercial
,POINT (-3.2163537813204233 55.957265970488436),55.95726597,-3.216353781,commercial
,POINT (-3.2135011500000004 55.956226900000004),55.9562269,-3.21350115,residential
,POINT (-3.21406026121762 55.956568277694466),55.95656828,-3.214060261,residential
,POINT (-3.2148797605802844 55.95692475581625),55.95692476,-3.214879761,residential
,POINT (-3.2134786 55.956212600000015),55.9562126,-3.2134786,residential
,POINT (-3.2147197741416536 55.95708237864509),55.95708238,-3.214719774,residential
,POINT (-3.2131856464807393 55.95603631618821),55.95603632,-3.213185646,residential
,POINT (-3.215672022872813 55.955402374239675),55.95540237,-3.215672023,residential
,POINT (-3.2143905226081784 55.95444372734588),55.95444373,-3.214390523,residential
,POINT (-3.2151104437158207 55.95517851146398),55.95517851,-3.215110444,residential
,POINT (-3.2140781839081627 55.95548831334296),55.95548831,-3.214078184,residential
,POINT (-3.2119230000000005 55.956033000000005),55.956033,-3.211923,residential
,POINT (-3.219664658665283 55.956892273424096),55.95689227,-3.219664659,residential
,POINT (-3.219537923468655 55.956895942826804),55.95689594,-3.219537923,residential
,POINT (-3.2182419902502977 55.95401670535095),55.95401671,-3.21824199,residential
,POINT (-3.216037569054295 55.954287329970796),55.95428733,-3.216037569,residential
,POINT (-3.2179761522894847 55.954852611944574),55.95485261,-3.217976152,residential
,POINT (-3.220271616745405 55.95352640259729),55.9535264,-3.220271617,residential
,POINT (-3.2160913724169946 55.95435699322469),55.95435699,-3.216091372,residential
,POINT (-3.217529220276312 55.95487619059909),55.95487619,-3.21752922,residential
,POINT (-3.2190075477477484 55.95385709908611),55.9538571,-3.219007548,residential
,POINT (-3.2176775084692926 55.95486801647485),55.95486802,-3.217677508,residential
,POINT (-3.215711742678032 55.95386467547728),55.95386468,-3.215711743,residential
,POINT (-3.2165278617400226 55.95469196456639),55.95469196,-3.216527862,residential
,POINT (-3.2193048647439326 55.953789164022616),55.95378916,-3.219304865,residential
,POINT (-3.2185621825355377 55.95397013284739),55.95397013,-3.218562183,residential
,POINT (-3.2166445550889042 55.95474256214698),55.95474256,-3.216644555,residential
,POINT (-3.2200075446795373 55.954238681375685),55.95423868,-3.220007545,residential
,POINT (-3.216301530147483 55.9545719750554),55.95457198,-3.21630153,residential
,POINT (-3.2199697357897246 55.95400835020958),55.95400835,-3.219969736,residential
,POINT (-3.218128999009094 55.95484614255372),55.95484614,-3.218128999,residential
,POINT (-3.2200324217060157 55.95439074933162),55.95439075,-3.220032422,residential
,POINT (-3.2159306111087997 55.9541487284806),55.95414873,-3.215930611,residential
,POINT (-3.2191538779218205 55.95382365291812),55.95382365,-3.219153878,residential
,POINT (-3.2174216396828705 55.95401783972526),55.95401784,-3.21742164,residential
,POINT (-3.215766537542695 55.95393578063221),55.95393578,-3.215766538,residential
,POINT (-3.218887945529111 55.95480563890296),55.95480564,-3.218887946,residential
,POINT (-3.218715662737674 55.95393683079759),55.95393683,-3.218715663,residential
,POINT (-3.2158224097676738 55.954008251815715),55.95400825,-3.21582241,residential
,POINT (-3.2167772002506045 55.95478558878551),55.95478559,-3.2167772,residential
,POINT (-3.218863854098433 55.95389554582289),55.95389555,-3.218863854,residential
,POINT (-3.2156588315598507 55.95379600514523),55.95379601,-3.215658832,residential
,POINT (-3.216407694971933 55.95463684660715),55.95463685,-3.216407695,residential
,POINT (-3.217750228404228 55.95403479081956),55.95403479,-3.217750228,residential
,POINT (-3.2163053110025404 55.953776187405786),55.95377619,-3.216305311,residential
,POINT (-3.219944607837013 55.95385732014567),55.95385732,-3.219944608,residential
,POINT (-3.2170728793922203 55.9548524499391),55.95485245,-3.217072879,residential
,POINT (-3.220045505505432 55.95447039019757),55.95447039,-3.220045506,residential
,POINT (-3.2187383787224557 55.95481331096677),55.95481331,-3.218738379,residential
,POINT (-3.2184344467614814 55.95482896236048),55.95482896,-3.218434447,residential
,POINT (-3.220129299081528 55.95357018118696),55.95357018,-3.220129299,residential
,POINT (-3.220019461506947 55.954314374007446),55.95431437,-3.220019462,residential
,POINT (-3.2158762981460756 55.95407817031645),55.95407817,-3.215876298,residential
,POINT (-3.2184033805847703 55.95399661090862),55.95399661,-3.218403381,residential
,POINT (-3.2199877428366763 55.95361269786511),55.9536127,-3.219987743,residential
,POINT (-3.216149639660802 55.954427288846794),55.95442729,-3.21614964,residential
,POINT (-3.217916230641158 55.95403534622491),55.95403535,-3.217916231,residential
,POINT (-3.216213174322469 55.95450105726539),55.95450106,-3.216213174,residential
,POINT (-3.2164381989210997 55.95380005438446),55.95380005,-3.216438199,residential
,POINT (-3.218080577382832 55.95402958303239),55.95402958,-3.218080577,residential
,POINT (-3.21598445737558 55.954218460058044),55.95421846,-3.215984457,residential
,POINT (-3.2172263897320557 55.95487291146338),55.95487291,-3.21722639,residential
,POINT (-3.2165710066130027 55.95382470804468),55.95382471,-3.216571007,residential
,POINT (-3.219501863534453 55.95477092836565),55.95477093,-3.219501864,residential
,POINT (-3.217380097490429 55.9548801864865),55.95488019,-3.217380097,residential
,POINT (-3.21758506101377 55.95402950579964),55.95402951,-3.217585061,residential
,POINT (-3.2169227133014977 55.95482416515653),55.95482417,-3.216922713,residential
,POINT (-3.2185871288650323 55.95482111327577),55.95482111,-3.218587129,residential
,POINT (-3.219994991376237 55.954161827847656),55.95416183,-3.219994991,residential
,POINT (-3.2182823436215178 55.95483825868488),55.95483826,-3.218282344,residential
,POINT (-3.2199568249459674 55.95393129268292),55.95393129,-3.219956825,residential
,POINT (-3.219340441434013 55.95477915098548),55.95477915,-3.219340441,residential
,POINT (-3.2199321188501093 55.95377898327951),55.95377898,-3.219932119,residential
,POINT (-3.2168234897289696 55.95391016961721),55.95391017,-3.21682349,residential
,POINT (-3.219038050932113 55.954797911330196),55.95479791,-3.219038051,residential
,POINT (-3.216972047549542 55.95394803126461),55.95394803,-3.216972048,residential
,POINT (-3.2191868389333043 55.95478708470983),55.95478708,-3.219186839,residential
,POINT (-3.2178258892574476 55.954860376493095),55.95486038,-3.217825889,residential
,POINT (-3.216696623354311 55.953860806211694),55.95386081,-3.216696623,residential
,POINT (-3.219842256078911 55.9536607435996),55.95366074,-3.219842256,residential
,POINT (-3.213860793333066 55.94838588354116),55.94838588,-3.213860793,residential
,POINT (-3.211805262599743 55.950226192726056),55.95022619,-3.211805263,residential
,POINT (-3.2198601698814895 55.95066948112914),55.95066948,-3.21986017,residential
,POINT (-3.219974051528721 55.95071555046367),55.95071555,-3.219974052,residential
,POINT (-3.219670723984188 55.95083049639923),55.9508305,-3.219670724,residential
,POINT (-3.2062290526123247 55.9464424942161),55.94644249,-3.206229053,commercial
,POINT (-3.2186869022642033 55.948000352844936),55.94800035,-3.218686902,residential
,POINT (-3.2184203643287566 55.948099375083274),55.94809938,-3.218420364,residential
,POINT (-3.2181356729141153 55.948179200667866),55.9481792,-3.218135673,residential
,POINT (-3.2196762765177804 55.94731829909701),55.9473183,-3.219676277,residential
,POINT (-3.2197922536026318 55.947234409320494),55.94723441,-3.219792254,residential
,POINT (-3.2173889157873354 55.94832357315619),55.94832357,-3.217388916,residential
,POINT (-3.218818593876424 55.947946053200226),55.94794605,-3.218818594,residential
,POINT (-3.219534107358609 55.947479517160936),55.94747952,-3.219534107,residential
,POINT (-3.2178395539992772 55.94824519269239),55.94824519,-3.217839554,residential
,POINT (-3.2185562270770984 55.94805577287832),55.94805577,-3.218556227,residential
,POINT (-3.2175458687863543 55.94828088160188),55.94828088,-3.217545869,residential
,POINT (-3.2193619631025103 55.94762655699213),55.94762656,-3.219361963,residential
,POINT (-3.2182800294855713 55.94814054071855),55.94814054,-3.218280029,residential
,POINT (-3.219608883923747 55.94740173670815),55.94740174,-3.219608884,residential
,POINT (-3.217690607889773 55.94826509329811),55.94826509,-3.217690608,residential
,POINT (-3.219450875124581 55.947554282756556),55.94755428,-3.219450875,residential
,POINT (-3.2191651132437977 55.94776562904733),55.94776563,-3.219165113,residential
,POINT (-3.2192670969676245 55.94769786283529),55.94769786,-3.219267097,residential
,POINT (-3.218939805496414 55.94788868556658),55.94788869,-3.218939805,residential
,POINT (-3.2190583776677095 55.94782872055776),55.94782872,-3.219058378,residential
,POINT (-3.281470012411284 55.939552146207035),55.93955215,-3.281470012,residential
,POINT (-3.283749610022671 55.938544449511404),55.93854445,-3.28374961,residential
,POINT (-3.2192709349172812 55.94848250747201),55.94848251,-3.219270935,residential
,POINT (-3.2212897136037917 55.94684023547466),55.94684024,-3.221289714,residential
,POINT (-3.221355612193883 55.947727464620854),55.94772746,-3.221355612,residential
,POINT (-3.221275592467792 55.94661944005875),55.94661944,-3.221275592,residential
,POINT (-3.2199952201063464 55.948014595436135),55.9480146,-3.21999522,residential
,POINT (-3.2203455652473116 55.947886736391624),55.94788674,-3.220345565,residential
,POINT (-3.221243811018996 55.9462474100355),55.94624741,-3.221243811,residential
,POINT (-3.221000064611558 55.94773383606416),55.94773384,-3.221000065,residential
,POINT (-3.2212837043223645 55.94676602644321),55.94676603,-3.221283704,residential
,POINT (-3.219138193976698 55.94861489855463),55.9486149,-3.219138194,residential
,POINT (-3.2213268929907097 55.9472835717219),55.94728357,-3.221326893,residential
,POINT (-3.2212363853792225 55.94617167224421),55.94617167,-3.221236385,residential
,POINT (-3.2197818240073723 55.94811803065029),55.94811803,-3.219781824,residential
,POINT (-3.2201082208016087 55.94796806972908),55.94796807,-3.220108221,residential
,POINT (-3.2213039318594383 55.946988446629376),55.94698845,-3.221303932,residential
,POINT (-3.2207326795220794 55.94778281409143),55.94778281,-3.22073268,residential
,POINT (-3.221299467896352 55.946914427772725),55.94691443,-3.221299468,residential
,POINT (-3.2212575398108187 55.94639597866585),55.94639598,-3.22125754,residential
,POINT (-3.2198858009422175 55.94806454932204),55.94806455,-3.219885801,residential
,POINT (-3.221335998809112 55.947432608263234),55.94743261,-3.221335999,residential
,POINT (-3.2212520905286173 55.94632207338905),55.94632207,-3.221252091,residential
,POINT (-3.2190230602691288 55.948758027160835),55.94875803,-3.21902306,residential
,POINT (-3.220864515098305 55.94775553210383),55.94775553,-3.220864515,residential
,POINT (-3.22131204917064 55.94713647923682),55.94713648,-3.221312049,residential
,POINT (-3.2193407107857674 55.94841790538015),55.94841791,-3.219340711,residential
,POINT (-3.2190760822443827 55.9486860374561),55.94868604,-3.219076082,residential
,POINT (-3.219589117115093 55.94823312804424),55.94823313,-3.219589117,residential
,POINT (-3.2213302336746668 55.947358585604945),55.94735859,-3.221330234,residential
,POINT (-3.221266239386455 55.94654506872573),55.94654507,-3.221266239,residential
,POINT (-3.219681040344077 55.94817486427634),55.94817486,-3.21968104,residential
,POINT (-3.2204717104663723 55.94784925825744),55.94784926,-3.22047171,residential
,POINT (-3.2213059951630196 55.947062234365994),55.94706223,-3.221305995,residential
,POINT (-3.2189302661201578 55.94890242929759),55.94890243,-3.218930266,residential
,POINT (-3.2206009011810015 55.94781398648435),55.94781399,-3.220600901,residential
,POINT (-3.221281606930569 55.94669243834614),55.94669244,-3.221281607,residential
,POINT (-3.2213526440040177 55.947578926516144),55.94757893,-3.221352644,residential
,POINT (-3.221259957031133 55.94646989077413),55.94646989,-3.221259957,residential
,POINT (-3.219419834521913 55.94835379878264),55.9483538,-3.219419835,residential
,POINT (-3.2188021889350162 55.94906238513723),55.94906239,-3.218802189,residential
,POINT (-3.2213458585826538 55.947505551593),55.94750555,-3.221345859,residential
,POINT (-3.218974376865772 55.94882917475486),55.94882917,-3.218974377,residential
,POINT (-3.2202241713443356 55.947926433511185),55.94792643,-3.220224171,residential
,POINT (-3.2213214030730253 55.94721004367365),55.94721004,-3.221321403,residential
,POINT (-3.2195021873842964 55.94829217040932),55.94829217,-3.219502187,residential
,POINT (-3.2189057957600253 55.94899551416111),55.94899551,-3.218905796,residential
,POINT (-3.221353938501262 55.94765055274449),55.94765055,-3.221353939,residential
,POINT (-3.219203846741005 55.948546742224536),55.94854674,-3.219203847,residential
,POINT (-3.221149326901934 55.947728846700905),55.94772885,-3.221149327,residential
,POINT (-3.16488084086867 55.97571240228066),55.9757124,-3.164880841,commercial
,POINT (-3.1727555353250803 55.974576290502135),55.97457629,-3.172755535,residential
Nexus Digital Media Limited,POINT (-3.168382098626804 55.9746950639608),55.97469506,-3.168382099,commercial
,POINT (-3.1646509703007575 55.97628914830454),55.97628915,-3.16465097,commercial
,POINT (-3.164346136140585 55.975847884298474),55.97584788,-3.164346136,commercial
,POINT (-3.1675862680549653 55.97502722702133),55.97502723,-3.167586268,commercial
,POINT (-3.1675077986930944 55.97520350545686),55.97520351,-3.167507799,residential
,POINT (-3.2799498069894177 55.940776316560985),55.94077632,-3.279949807,residential
,POINT (-3.2792343467100458 55.940923609761775),55.94092361,-3.279234347,residential
,POINT (-3.2793916782753447 55.94118605832455),55.94118606,-3.279391678,residential
,POINT (-3.2825213689990953 55.94163708045987),55.94163708,-3.282521369,residential
,POINT (-3.283364391116184 55.94211580275843),55.9421158,-3.283364391,residential
,POINT (-3.283121043272205 55.94214219748055),55.9421422,-3.283121043,residential
,POINT (-3.165957419935768 55.97478993795809),55.97478994,-3.16595742,commercial
The Old Assembly Hall,POINT (-3.166410554381894 55.97514296339621),55.97514296,-3.166410554,commercial
,POINT (-3.1662619577214044 55.97486261751094),55.97486262,-3.166261958,commercial
,POINT (-3.2828905293489665 55.94089493371401),55.94089493,-3.282890529,residential
,POINT (-3.2835589366694427 55.940857816471244),55.94085782,-3.283558937,residential
,POINT (-3.2835914286372745 55.941267817194536),55.94126782,-3.283591429,residential
,POINT (-3.283314074415317 55.94146915107762),55.94146915,-3.283314074,residential
,POINT (-3.1634421204515046 55.97346302803361),55.97346303,-3.16344212,commercial
,POINT (-3.168418282867844 55.97229527981599),55.97229528,-3.168418283,commercial
,POINT (-3.284316821498493 55.94189716764417),55.94189717,-3.284316821,residential
Corstorphine Primary School,POINT (-3.2855790930924815 55.94080546915705),55.94080547,-3.285579093,school
,POINT (-3.284144358767835 55.94073236363886),55.94073236,-3.284144359,residential
,POINT (-3.284702298609673 55.94126453340111),55.94126453,-3.284702299,residential
,POINT (-3.2957031209235015 55.96005347317165),55.96005347,-3.295703121,commercial
,POINT (-3.279491726170018 55.939309609026886),55.93930961,-3.279491726,residential
St John Vianney RC Primary School,POINT (-3.1568121922511536 55.91838857312305),55.91838857,-3.156812192,school
Darroch Annexe,POINT (-3.2071840486122505 55.9405612135022),55.94056121,-3.207184049,school
,POINT (-3.2810702160643133 55.94521218836945),55.94521219,-3.281070216,residential
Cargilfield School,POINT (-3.301005960134036 55.96982801993133),55.96982802,-3.30100596,school
The Capital Building,POINT (-3.19435999601009 55.95375058321914),55.95375058,-3.194359996,commercial
,POINT (-3.159287966236195 55.96270737929296),55.96270738,-3.159287966,commercial
,POINT (-3.1407024329605866 55.95597868857719),55.95597869,-3.140702433,residential
Forthview Primary School,POINT (-3.2408528571680635 55.97028183231325),55.97028183,-3.240852857,school
St. George's (Lower School),POINT (-3.235913672990984 55.94801209731374),55.9480121,-3.235913673,school
NINE - Life Sciences Innovation Centre,POINT (-3.1293597240852584 55.91984658845936),55.91984659,-3.129359724,commercial
,POINT (-3.1976545000000014 55.96470045),55.96470045,-3.1976545,residential
Juniper Green Primary School,POINT (-3.2848946810798707 55.906534664317185),55.90653466,-3.284894681,school
,POINT (-3.213900451582111 55.95786276981606),55.95786277,-3.213900452,residential
,POINT (-3.2137582283071597 55.957709145343905),55.95770915,-3.213758228,residential
,POINT (-3.2088336922538847 55.924126729083525),55.92412673,-3.208833692,residential
Ashley Court,POINT (-3.221654913210851 55.92375779252911),55.92375779,-3.221654913,residential
,POINT (-3.2125001652798817 55.92046370298228),55.9204637,-3.212500165,residential
,POINT (-3.2957704673950095 55.9112675983099),55.9112676,-3.295770467,residential
,POINT (-3.21752979972312 55.944813266817434),55.94481327,-3.2175298,commercial
,POINT (-3.2171133952977358 55.94537305442438),55.94537305,-3.217113395,commercial
,POINT (-3.227988059930815 55.94509310931139),55.94509311,-3.22798806,residential
,POINT (-3.250316180780734 55.94471486318239),55.94471486,-3.250316181,commercial
Mainpoint,POINT (-3.2012507822228073 55.94577683745037),55.94577684,-3.201250782,commercial
Lo Gy Centre,POINT (-3.148757303319426 55.87672661861274),55.87672662,-3.148757303,commercial
,POINT (-3.2375896574721 55.94290586226029),55.94290586,-3.237589657,residential
,POINT (-3.218799647901787 55.94419105574191),55.94419106,-3.218799648,residential
,POINT (-3.2084749516391087 55.92045035294071),55.92045035,-3.208474952,residential
,POINT (-3.202180066104063 55.92146572340058),55.92146572,-3.202180066,residential
,POINT (-3.200506629158969 55.92232873640128),55.92232874,-3.200506629,residential
,POINT (-3.2001637868854718 55.92140689819502),55.9214069,-3.200163787,residential
,POINT (-3.200427579744668 55.922167379889515),55.92216738,-3.20042758,residential
,POINT (-3.2000724374991734 55.92153869904131),55.9215387,-3.200072437,residential
,POINT (-3.200594254940144 55.92265517453082),55.92265517,-3.200594255,residential
,POINT (-3.2003742199604632 55.922033353440966),55.92203335,-3.20037422,residential
,POINT (-3.2002632944861245 55.9217366891338),55.92173669,-3.200263294,residential
,POINT (-3.2005459179811906 55.92246820992127),55.92246821,-3.200545918,residential
,POINT (-3.200310329136915 55.921877921383484),55.92187792,-3.200310329,residential
,POINT (-3.2102433682213274 55.940224381082615),55.94022438,-3.210243368,residential
,POINT (-3.2111024823766257 55.93990761887671),55.93990762,-3.211102482,residential
,POINT (-3.2107868802761392 55.94054637197867),55.94054637,-3.21078688,residential
,POINT (-3.2105413525293063 55.940069248639375),55.94006925,-3.210541353,residential
,POINT (-3.2105822923226013 55.94064592981144),55.94064593,-3.210582292,residential
,POINT (-3.163560730527223 55.95972537036973),55.95972537,-3.163560731,residential
Cluny Lodge Nursing Home,POINT (-3.206792591639543 55.92321582555511),55.92321583,-3.206792592,residential
,POINT (-3.2055206746957148 55.92330854426797),55.92330854,-3.205520675,residential
,POINT (-3.2058332846045245 55.92039006716884),55.92039007,-3.205833285,residential
,POINT (-3.2034274493754817 55.92053599632426),55.920536,-3.203427449,residential
,POINT (-3.1936199153597404 55.92735840033082),55.9273584,-3.193619915,residential
,POINT (-3.1947753247364012 55.92752945146555),55.92752945,-3.194775325,residential
,POINT (-3.2030524580545556 55.92644435164547),55.92644435,-3.203052458,residential
,POINT (-3.2059561918291704 55.92653515889977),55.92653516,-3.205956192,residential
,POINT (-3.2036430679528825 55.9280978789606),55.92809788,-3.203643068,residential
,POINT (-3.205125953172656 55.9279613622441),55.92796136,-3.205125953,residential
,POINT (-3.209066446851512 55.9270278843099),55.92702788,-3.209066447,commercial
,POINT (-3.2021282379512974 55.93079422564737),55.93079423,-3.202128238,residential
,POINT (-3.20861652692972 55.92747917746141),55.92747918,-3.208616527,residential
,POINT (-3.203311169581827 55.928498571715814),55.92849857,-3.20331117,residential
,POINT (-3.20666706264884 55.93120742439045),55.93120742,-3.206667063,residential
,POINT (-3.204943831944313 55.93126009975153),55.9312601,-3.204943832,residential
,POINT (-3.2062787346642514 55.931197596342294),55.9311976,-3.206278735,residential
,POINT (-3.203974083024737 55.92976400975384),55.92976401,-3.203974083,residential
,POINT (-3.20589952183807 55.93127146595835),55.93127147,-3.205899522,residential
,POINT (-3.2049219198926777 55.93152188148994),55.93152188,-3.20492192,residential
,POINT (-3.2103466171062918 55.92763424859897),55.92763425,-3.210346617,residential
,POINT (-3.180749105836483 55.93998569945959),55.9399857,-3.180749106,residential
,POINT (-3.225386203628355 55.938857798902916),55.9388578,-3.225386204,residential
,POINT (-3.286852965680031 55.943451184002555),55.94345118,-3.286852966,commercial
,POINT (-3.2868846572199057 55.94412537930593),55.94412538,-3.286884657,commercial
,POINT (-3.287505152604313 55.94325783394053),55.94325783,-3.287505153,commercial
,POINT (-3.1498488429085616 55.971145283656504),55.97114528,-3.149848843,commercial
,POINT (-3.296095049999999 55.951547100000006),55.9515471,-3.29609505,residential
,POINT (-3.210542182218143 55.93882832708761),55.93882833,-3.210542182,residential
,POINT (-3.23823140543165 55.97474769860675),55.9747477,-3.238231405,commercial
Clovenstone Primary School,POINT (-3.27378274880983 55.91154247093956),55.91154247,-3.273782749,school
Noreen and Kenneth Murray Library,POINT (-3.1749765947199737 55.9229046080503),55.92290461,-3.174976595,library
Atria One,POINT (-3.2084049381709727 55.946106793188754),55.94610679,-3.208404938,commercial
,POINT (-3.2524258737582286 55.931357800761816),55.9313578,-3.252425874,commercial
,POINT (-3.234922644504035 55.948600162420185),55.94860016,-3.234922645,residential
,POINT (-3.2343492352324894 55.94713009472257),55.94713009,-3.234349235,residential
,POINT (-3.2337046685599167 55.94749172511405),55.94749173,-3.233704669,residential
,POINT (-3.2345714689185665 55.946976797946064),55.9469768,-3.234571469,residential
,POINT (-3.2364374985812634 55.948739927473135),55.94873993,-3.236437499,residential
,POINT (-3.2367585354486472 55.94892347698625),55.94892348,-3.236758535,residential
,POINT (-3.237142265459314 55.94880536285308),55.94880536,-3.237142265,residential
,POINT (-3.237532665713576 55.948706941862866),55.94870694,-3.237532666,residential
,POINT (-3.2379342415042056 55.94862620728627),55.94862621,-3.237934242,residential
,POINT (-3.229413966337864 55.957595235021905),55.95759524,-3.229413966,residential
,POINT (-3.2277258499999997 55.95740084999999),55.95740085,-3.22772585,residential
,POINT (-3.2277416858098054 55.95788681677685),55.95788682,-3.227741686,residential
,POINT (-3.229171461229808 55.95693125037854),55.95693125,-3.229171461,residential
,POINT (-3.2314822450959944 55.956171780932124),55.95617178,-3.231482245,residential
,POINT (-3.229454840691631 55.95677343842572),55.95677344,-3.229454841,residential
,POINT (-3.2258552175539137 55.95781134198516),55.95781134,-3.225855218,residential
,POINT (-3.2326888274378747 55.9560661161621),55.95606612,-3.232688827,residential
,POINT (-3.2337833475169093 55.95563488083514),55.95563488,-3.233783348,residential
,POINT (-3.234664093745346 55.95605716751055),55.95605717,-3.234664094,residential
,POINT (-3.2316713003896917 55.955641678262),55.95564168,-3.2316713,residential
,POINT (-3.232261389381528 55.95529685459121),55.95529685,-3.232261389,residential
,POINT (-3.2324928808178424 55.95515221084891),55.95515221,-3.232492881,residential
,POINT (-3.2396597236976246 55.956070244796706),55.95607024,-3.239659724,residential
,POINT (-3.239214862087543 55.95569997713698),55.95569998,-3.239214862,residential
,POINT (-3.22814495570499 55.95641531897984),55.95641532,-3.228144956,residential
,POINT (-3.238548614050907 55.95614594041473),55.95614594,-3.238548614,residential
,POINT (-3.2402537918817185 55.95605648955292),55.95605649,-3.240253792,residential
,POINT (-3.2392375475227677 55.95608938964751),55.95608939,-3.239237548,residential
,POINT (-3.233967637887593 55.956302162990944),55.95630216,-3.233967638,residential
,POINT (-3.285879975014562 55.94439467228509),55.94439467,-3.285879975,residential
,POINT (-3.2857359526512155 55.944404083648784),55.94440408,-3.285735953,residential
,POINT (-3.2318015780435383 55.95400015818125),55.95400016,-3.231801578,residential
,POINT (-3.230763609208455 55.954194859549716),55.95419486,-3.230763609,residential
Excel House,POINT (-3.206272523066767 55.945175333665475),55.94517533,-3.206272523,commercial
Exchange Plaza,POINT (-3.206873879539912 55.94758663511133),55.94758664,-3.20687388,commercial
,POINT (-3.2463691213216683 55.947519383971596),55.94751938,-3.246369121,residential
,POINT (-3.2426447 55.94785165000001),55.94785165,-3.2426447,residential
,POINT (-3.245473907922701 55.94694022957246),55.94694023,-3.245473908,residential
,POINT (-3.2445290625876857 55.94430556920563),55.94430557,-3.244529063,residential
Colinton Library,POINT (-3.251408978477996 55.906724811558796),55.90672481,-3.251408978,library
,POINT (-3.1850574568813674 55.942256395885806),55.9422564,-3.185057457,residential
,POINT (-3.1849641853294317 55.94192985727589),55.94192986,-3.184964185,residential
,POINT (-3.1853927530026294 55.94204956895004),55.94204957,-3.185392753,residential
,POINT (-3.185500040891147 55.942216365826695),55.94221637,-3.185500041,residential
,POINT (-3.21593281676776 55.935383000460774),55.935383,-3.215932817,residential
,POINT (-3.309468982192166 55.94745873136314),55.94745873,-3.309468982,residential
,POINT (-3.308647762870293 55.947568067199065),55.94756807,-3.308647763,residential
,POINT (-3.310216366042995 55.94830278833585),55.94830279,-3.310216366,residential
,POINT (-3.312141805261821 55.94803050935399),55.94803051,-3.312141805,residential
,POINT (-3.309772053708767 55.94790153748216),55.94790154,-3.309772054,residential
,POINT (-3.309351353788619 55.94885556262503),55.94885556,-3.309351354,residential
,POINT (-3.31121756683685 55.94801310563557),55.94801311,-3.311217567,residential
,POINT (-3.3088461829397837 55.9478600287296),55.94786003,-3.308846183,residential
,POINT (-3.3106577696803825 55.9486572401917),55.94865724,-3.31065777,residential
,POINT (-3.3113034743262952 55.94862483532341),55.94862484,-3.311303474,residential
,POINT (-3.30967772147447 55.946912034321464),55.94691203,-3.309677721,residential
,POINT (-3.3091435945064687 55.948113168488696),55.94811317,-3.309143595,residential
,POINT (-3.3093334569935333 55.948436882408856),55.94843688,-3.309333457,residential
,POINT (-3.308689460268176 55.94717041069531),55.94717041,-3.30868946,residential
St Margaret's RC Primary School,POINT (-3.1483121084363157 55.88124597992785),55.88124598,-3.148312108,school
,POINT (-3.2727177542778256 55.9313066131306),55.93130661,-3.272717754,residential
,POINT (-3.272653803101656 55.9319070841578),55.93190708,-3.272653803,residential
,POINT (-3.2719912406652454 55.931592442931674),55.93159244,-3.271991241,residential
,POINT (-3.270513387184714 55.93125369884765),55.9312537,-3.270513387,residential
,POINT (-3.104446537307396 55.93274717307515),55.93274717,-3.104446537,residential
,POINT (-3.210521778161945 55.93327606429713),55.93327606,-3.210521778,residential
,POINT (-3.2103614618747116 55.93182814623369),55.93182815,-3.210361462,residential
,POINT (-3.2734947851821574 55.96391789566872),55.9639179,-3.273494785,residential
,POINT (-3.2731449500000007 55.96387905),55.96387905,-3.27314495,residential
,POINT (-3.2733330593550574 55.9635801842127),55.96358018,-3.273333059,residential
,POINT (-3.273440229261681 55.96380395186594),55.96380395,-3.273440229,residential
,POINT (-3.2735409031293874 55.964055584738944),55.96405558,-3.273540903,residential
,POINT (-3.2733815084023687 55.96368134147494),55.96368134,-3.273381508,residential
,POINT (-3.169813809840017 55.97577681625298),55.97577682,-3.16981381,commercial
,POINT (-3.169630600806494 55.975979481145465),55.97597948,-3.169630601,commercial
,POINT (-3.169876132987435 55.975492215744474),55.97549222,-3.169876133,commercial
,POINT (-3.2128981310573215 55.94754056953922),55.94754057,-3.212898131,residential
,POINT (-3.2112872707694677 55.92480160327906),55.9248016,-3.211287271,residential
,POINT (-3.2117601223740615 55.92475075558842),55.92475076,-3.211760122,residential
,POINT (-3.226098972971529 55.98078229145043),55.98078229,-3.226098973,residential
,POINT (-3.2091761330621984 55.972112676092124),55.97211268,-3.209176133,residential
,POINT (-3.2085404059510214 55.97195095063427),55.97195095,-3.208540406,residential
,POINT (-3.208715259127279 55.972426896115586),55.9724269,-3.208715259,residential
,POINT (-3.209134860048412 55.97163363435231),55.97163363,-3.20913486,residential
,POINT (-3.2084676561761194 55.97162087730612),55.97162088,-3.208467656,residential
,POINT (-3.2091804057803692 55.971826748708324),55.97182675,-3.209180406,residential
,POINT (-3.2091947492733066 55.97240081614041),55.97240082,-3.209194749,residential
Boroughmuir High School,POINT (-3.214785279865427 55.94082885862948),55.94082886,-3.21478528,school
,POINT (-3.182909445723877 55.96615308561506),55.96615309,-3.182909446,residential
,POINT (-3.1663425999999997 55.92717549999999),55.9271755,-3.1663426,residential
,POINT (-3.1683911550789152 55.92868351790847),55.92868352,-3.168391155,residential
,POINT (-3.164340252779463 55.928389601702),55.9283896,-3.164340253,residential
,POINT (-3.1676344338651385 55.92774626373933),55.92774626,-3.167634434,residential
,POINT (-3.1641617749173854 55.92847789505362),55.9284779,-3.164161775,residential
,POINT (-3.1663265999999997 55.927381600000004),55.9273816,-3.1663266,residential
,POINT (-3.1689144077533604 55.92936971063764),55.92936971,-3.168914408,residential
,POINT (-3.1699171411074447 55.92886189139303),55.92886189,-3.169917141,residential
,POINT (-3.1698868450117685 55.92883222686388),55.92883223,-3.169886845,residential
,POINT (-3.169213550116847 55.925635349938915),55.92563535,-3.16921355,residential
,POINT (-3.1684708133437405 55.92736569157181),55.92736569,-3.168470813,residential
,POINT (-3.167736424359018 55.92532612976474),55.92532613,-3.167736424,residential
,POINT (-3.1676901500000008 55.925553050000005),55.92555305,-3.16769015,residential
,POINT (-3.1688284275668095 55.92575615042227),55.92575615,-3.168828428,residential
,POINT (-3.1678174181496406 55.926056568524004),55.92605657,-3.167817418,residential
,POINT (-3.1696319032927187 55.925482202862895),55.9254822,-3.169631903,residential
,POINT (-3.167705800000001 55.9254793),55.9254793,-3.1677058,residential
,POINT (-3.1675349112466336 55.92614142422417),55.92614142,-3.167534911,residential
,POINT (-3.1677744231499556 55.92525140408176),55.9252514,-3.167774423,residential
,POINT (-3.170634732932807 55.92515382230066),55.92515382,-3.170634733,residential
,POINT (-3.1702206770215193 55.92466622107319),55.92466622,-3.170220677,residential
,POINT (-3.171337816038702 55.92493834334358),55.92493834,-3.171337816,residential
,POINT (-3.1709732647558537 55.92604356094589),55.92604356,-3.170973265,residential
,POINT (-3.170746698616978 55.92537013013063),55.92537013,-3.170746699,residential
,POINT (-3.1716876500000017 55.924743500000005),55.9247435,-3.17168765,residential
,POINT (-3.17046965 55.92551220000001),55.9255122,-3.17046965,residential
,POINT (-3.1710706 55.92531970000001),55.9253197,-3.1710706,residential
,POINT (-3.1718584527083853 55.925748117401646),55.92574812,-3.171858453,residential
,POINT (-3.172144797795924 55.925657014793956),55.92565701,-3.172144798,residential
,POINT (-3.1680719202235252 55.926324474764634),55.92632447,-3.16807192,residential
,POINT (-3.1701389275668483 55.92533596420174),55.92533596,-3.170138928,residential
,POINT (-3.1711074242695187 55.925028226123125),55.92502823,-3.171107424,residential
,POINT (-3.1707439504666466 55.92459023349338),55.92459023,-3.17074395,residential
,POINT (-3.1720836 55.9251662),55.9251662,-3.1720836,residential
,POINT (-3.1697083499999996 55.930187),55.930187,-3.16970835,residential
,POINT (-3.169762148758924 55.93056440007383),55.9305644,-3.169762149,residential
,POINT (-3.169897547031559 55.93107858296019),55.93107858,-3.169897547,residential
,POINT (-3.167227809477144 55.920572638344574),55.92057264,-3.167227809,commercial
,POINT (-3.1679954420977134 55.92292724883636),55.92292725,-3.167995442,residential
Braidburn Court,POINT (-3.1669408615979977 55.921004011449824),55.92100401,-3.166940862,residential
Kaimes School,POINT (-3.1518407463311067 55.90503041482211),55.90503041,-3.151840746,school
,POINT (-3.1685055079591344 55.92336754410878),55.92336754,-3.168505508,residential
,POINT (-3.1699996499999994 55.9228558),55.9228558,-3.16999965,residential
,POINT (-3.1683616499999996 55.92295185),55.92295185,-3.16836165,residential
,POINT (-3.170244118249161 55.92738091235398),55.92738091,-3.170244118,residential
,POINT (-3.1720789482621363 55.926094916017895),55.92609492,-3.172078948,residential
,POINT (-3.169371260756298 55.927468087838726),55.92746809,-3.169371261,residential
,POINT (-3.1734930288064294 55.92518648183071),55.92518648,-3.173493029,residential
,POINT (-3.169753646261286 55.92683484866072),55.92683485,-3.169753646,residential
,POINT (-3.170017584370787 55.92675096963381),55.92675097,-3.170017584,residential
,POINT (-3.1730016307816467 55.92634965216907),55.92634965,-3.173001631,residential
,POINT (-3.1715892 55.92624359999999),55.9262436,-3.1715892,residential
,POINT (-3.1705487999999993 55.926583699999995),55.9265837,-3.1705488,residential
,POINT (-3.170799402235384 55.92713921342042),55.92713921,-3.170799402,residential
,POINT (-3.1722646501530978 55.92841852377819),55.92841852,-3.17226465,residential
,POINT (-3.1725112398076365 55.93031253540678),55.93031254,-3.17251124,residential
,POINT (-3.17221763589077 55.93040587869287),55.93040588,-3.172217636,residential
,POINT (-3.172694740553338 55.930273854436514),55.93027385,-3.172694741,residential
,POINT (-3.173354281954655 55.92820313801083),55.92820314,-3.173354282,residential
,POINT (-3.1747080618091155 55.929319179341846),55.92931918,-3.174708062,residential
,POINT (-3.17336195 55.9316247),55.9316247,-3.17336195,residential
,POINT (-3.174509567857338 55.931821294261475),55.93182129,-3.174509568,residential
,POINT (-3.174359145671882 55.9316444851796),55.93164449,-3.174359146,residential
,POINT (-3.176238636234529 55.932629288436935),55.93262929,-3.176238636,residential
,POINT (-3.175475652458486 55.93288768963298),55.93288769,-3.175475652,residential
,POINT (-3.173399362727713 55.932175633391886),55.93217563,-3.173399363,residential
,POINT (-3.1761932499999994 55.93211545),55.93211545,-3.17619325,residential
,POINT (-3.173219329043356 55.93145663305096),55.93145663,-3.173219329,residential
,POINT (-3.1722564334778927 55.93242616048693),55.93242616,-3.172256433,residential
Musselburgh Bus Depot,POINT (-3.0541109139781555 55.94144184993043),55.94144185,-3.054110914,commercial
Knight Chiropractic,POINT (-3.04739062417114 55.94302861883137),55.94302862,-3.047390624,commercial
,POINT (-3.185187099495021 55.92438869535171),55.9243887,-3.185187099,residential
,POINT (-3.179901375263625 55.924909268328854),55.92490927,-3.179901375,residential
,POINT (-3.1848245 55.924055900000006),55.9240559,-3.1848245,residential
,POINT (-3.1766992002216905 55.92611525093832),55.92611525,-3.1766992,residential
,POINT (-3.174566494344632 55.92499738166632),55.92499738,-3.174566494,residential
,POINT (-3.1762548986355026 55.926128710604395),55.92612871,-3.176254899,residential
,POINT (-3.1748612907288702 55.925987420565065),55.92598742,-3.174861291,residential
,POINT (-3.1771586609720996 55.92502082083918),55.92502082,-3.177158661,residential
,POINT (-3.1765953114568375 55.92500124104771),55.92500124,-3.176595311,residential
,POINT (-3.175058750623671 55.92497965334934),55.92497965,-3.175058751,residential
,POINT (-3.175841329737756 55.92551689018148),55.92551689,-3.17584133,residential
,POINT (-3.1741166493756015 55.92507772850284),55.92507773,-3.174116649,residential
,POINT (-3.176378397514573 55.925546561866476),55.92554656,-3.176378398,residential
,POINT (-3.1771548500079883 55.92610674954076),55.92610675,-3.17715485,residential
,POINT (-3.1759861121984896 55.926116277239835),55.92611628,-3.175986112,residential
,POINT (-3.1755310879532823 55.92606993282929),55.92606993,-3.175531088,residential
,POINT (-3.175875897476443 55.92497410689151),55.92497411,-3.175875897,residential
,POINT (-3.1777187117607557 55.92507722179262),55.92507722,-3.177718712,residential
,POINT (-3.1744710739279682 55.92559578332385),55.92559578,-3.174471074,residential
,POINT (-3.1741584475771485 55.925368146684434),55.92536815,-3.174158448,residential
,POINT (-3.1753701997904007 55.92495635329522),55.92495635,-3.1753702,residential
,POINT (-3.176927399501292 55.92554141528853),55.92554142,-3.1769274,residential
,POINT (-3.1735768748060025 55.92708938269182),55.92708938,-3.173576875,residential
,POINT (-3.1740163999999953 55.92793420000001),55.9279342,-3.1740164,residential
,POINT (-3.174558550853322 55.92880032609269),55.92880033,-3.174558551,residential
Musselburgh Delivery Office,POINT (-3.047738712062256 55.9434223100396),55.94342231,-3.047738712,commercial
,POINT (-3.1824057642537302 55.925085150491185),55.92508515,-3.182405764,residential
,POINT (-3.162926348795843 55.93087235034883),55.93087235,-3.162926349,residential
,POINT (-3.1673480287313884 55.93340766936469),55.93340767,-3.167348029,residential
,POINT (-3.169061483495833 55.93444170826202),55.93444171,-3.169061483,residential
,POINT (-3.166793808714372 55.934512099229885),55.9345121,-3.166793809,residential
,POINT (-3.1678697426364715 55.9341508427273),55.93415084,-3.167869743,residential
,POINT (-3.253339747004338 55.944863549163216),55.94486355,-3.253339747,residential
,POINT (-3.2569235239048755 55.94463670010439),55.9446367,-3.256923524,residential
,POINT (-3.2511005173250993 55.94666893643048),55.94666894,-3.251100517,residential
,POINT (-3.251706884316694 55.94785470547978),55.94785471,-3.251706884,residential
,POINT (-3.047642856363238 55.94298393669846),55.94298394,-3.047642856,commercial
,POINT (-3.168636189921463 55.932989766115206),55.93298977,-3.16863619,residential
,POINT (-3.1712131999999995 55.93191235),55.93191235,-3.1712132,residential
,POINT (-3.3057226818721244 55.88586791995951),55.88586792,-3.305722682,residential
,POINT (-3.214491950278941 55.93840339988556),55.9384034,-3.21449195,residential
,POINT (-3.171450549247909 55.92841156758316),55.92841157,-3.171450549,residential
,POINT (-3.17103309282469 55.92799746086243),55.92799746,-3.171033093,residential
,POINT (-3.1722482786404904 55.92710855506258),55.92710856,-3.172248279,residential
,POINT (-3.1729567311026687 55.927821091427596),55.92782109,-3.172956731,residential
,POINT (-3.1740323589906883 55.933089618682764),55.93308962,-3.174032359,residential
,POINT (-3.1750735287892256 55.93340056601589),55.93340057,-3.175073529,residential
,POINT (-3.1771869021270653 55.93706332665779),55.93706333,-3.177186902,residential
,POINT (-3.176720001610527 55.93565515365184),55.93565515,-3.176720002,residential
,POINT (-3.176402507960635 55.93645648163974),55.93645648,-3.176402508,residential
,POINT (-3.1762052639679106 55.93478061439116),55.93478061,-3.176205264,residential
,POINT (-3.175912145201172 55.933311292505245),55.93331129,-3.175912145,residential
,POINT (-3.1731615389945356 55.9331690235891),55.93316902,-3.173161539,residential
,POINT (-3.176472002833735 55.93360130745561),55.93360131,-3.176472003,residential
,POINT (-3.1758139063589823 55.93490091483005),55.93490091,-3.175813906,residential
,POINT (-3.1757164438311287 55.93562931960148),55.93562932,-3.175716444,residential
,POINT (-3.176825642358266 55.936744068239975),55.93674407,-3.176825642,residential
,POINT (-3.1776741000000004 55.93613785),55.93613785,-3.1776741,residential
,POINT (-3.1742093970541974 55.93324300101669),55.933243,-3.174209397,residential
,POINT (-3.174959054946682 55.934954520802194),55.93495452,-3.174959055,residential
,POINT (-3.1763801477311 55.93471243680721),55.93471244,-3.176380148,residential
,POINT (-3.176261671417598 55.93526440848504),55.93526441,-3.176261671,residential
,POINT (-3.1764345578791655 55.93549159715977),55.9354916,-3.176434558,residential
,POINT (-3.1743801621208103 55.93453646593995),55.93453647,-3.174380162,residential
,POINT (-3.176394790623379 55.93322482918944),55.93322483,-3.176394791,residential
,POINT (-3.1761505704071165 55.936304590230904),55.93630459,-3.17615057,residential
,POINT (-3.1750482419550328 55.93501066046402),55.93501066,-3.175048242,residential
,POINT (-3.176662403081581 55.936578706652824),55.93657871,-3.176662403,residential
,POINT (-3.1769669730328274 55.93686856273083),55.93686856,-3.176966973,residential
,POINT (-3.174006894147499 55.93491492791684),55.93491493,-3.174006894,residential
,POINT (-3.1755205368009025 55.933396852329395),55.93339685,-3.175520537,residential
,POINT (-3.1755894185532716 55.93550421959562),55.93550422,-3.175589419,residential
,POINT (-3.174725897134068 55.93469078187473),55.93469078,-3.174725897,residential
,POINT (-3.1763406 55.936374099999995),55.9363741,-3.1763406,residential
,POINT (-3.176526698274132 55.92643841035991),55.92643841,-3.176526698,residential
,POINT (-3.1754436701713655 55.92639572248827),55.92639572,-3.17544367,residential
,POINT (-3.1767280517797043 55.92644666445604),55.92644666,-3.176728052,residential
,POINT (-3.174655681862293 55.929727214470844),55.92972721,-3.174655682,residential
,POINT (-3.175262034312065 55.92969630593413),55.92969631,-3.175262034,residential
,POINT (-3.17640235507404 55.92818984062994),55.92818984,-3.176402355,residential
,POINT (-3.1766894497355063 55.92772935511551),55.92772936,-3.17668945,residential
,POINT (-3.1752996077550546 55.92741050719041),55.92741051,-3.175299608,residential
,POINT (-3.175987192552486 55.92675622373569),55.92675622,-3.175987193,residential
,POINT (-3.175762427984369 55.92640737953919),55.92640738,-3.175762428,residential
,POINT (-3.1758979213899012 55.92835438392341),55.92835438,-3.175897921,residential
,POINT (-3.177782432585262 55.92719945059259),55.92719945,-3.177782433,residential
,POINT (-3.176604545646301 55.92694917587845),55.92694918,-3.176604546,residential
,POINT (-3.176071408248018 55.92714050037037),55.9271405,-3.176071408,residential
,POINT (-3.176813640896297 55.92682335209374),55.92682335,-3.176813641,residential
,POINT (-3.1760107384932867 55.92795389743928),55.9279539,-3.176010738,residential
,POINT (-3.1766989501798015 55.92810218769607),55.92810219,-3.17669895,residential
,POINT (-3.1771569951487377 55.9264940490344),55.92649405,-3.177156995,residential
,POINT (-3.1764448111311925 55.927824589164),55.92782459,-3.176444811,residential
,POINT (-3.1762560059684968 55.92674462675754),55.92674463,-3.176256006,residential
,POINT (-3.176422305185829 55.92736518469968),55.92736518,-3.176422305,residential
,POINT (-3.1764225521123315 55.92675204279674),55.92675204,-3.176422552,residential
,POINT (-3.177618588972529 55.926573768681585),55.92657377,-3.177618589,residential
,POINT (-3.175543318755681 55.92729505251416),55.92729505,-3.175543319,residential
,POINT (-3.175842466960137 55.92876809608078),55.9287681,-3.175842467,residential
,POINT (-3.175797228387603 55.92721454978586),55.92721455,-3.175797228,residential
,POINT (-3.1757171552872787 55.92672478291483),55.92672478,-3.175717155,residential
,POINT (-3.1759057447468257 55.927534558066604),55.92753456,-3.175905745,residential
,POINT (-3.1752393554292606 55.92638951196477),55.92638951,-3.175239355,residential
,POINT (-3.175065426746922 55.92949135623464),55.92949136,-3.175065427,residential
,POINT (-3.176079151942527 55.92747466407576),55.92747466,-3.176079152,residential
,POINT (-3.1749179686963993 55.92637659397445),55.92637659,-3.174917969,residential
,POINT (-3.175643044627738 55.92762014996405),55.92762015,-3.175643045,residential
,POINT (-3.1746057241239933 55.92983351916375),55.92983352,-3.174605724,residential
,POINT (-3.1750094156663473 55.92670332903668),55.92670333,-3.175009416,residential
,POINT (-3.176436754462049 55.92701859362049),55.92701859,-3.176436754,residential
,POINT (-3.1755202275109804 55.92812835776341),55.92812836,-3.175520228,residential
,POINT (-3.1770071000000004 55.92955269999999),55.9295527,-3.1770071,residential
,POINT (-3.1760830443342654 55.92642061977106),55.92642062,-3.176083044,residential
,POINT (-3.1768934159867177 55.9284312807642),55.92843128,-3.176893416,residential
,POINT (-3.2061751250973134 55.93535604120558),55.93535604,-3.206175125,residential
,POINT (-3.2059504730140147 55.93468409795928),55.9346841,-3.205950473,residential
,POINT (-3.280733892449376 55.9362081339981),55.93620813,-3.280733892,residential
,POINT (-3.2797580892169402 55.93650436328216),55.93650436,-3.279758089,residential
,POINT (-3.28038243388863 55.93585853821299),55.93585854,-3.280382434,residential
,POINT (-3.2816946454227343 55.93532651572317),55.93532652,-3.281694645,residential
,POINT (-3.192697270382449 55.93542494560663),55.93542495,-3.19269727,residential
,POINT (-3.1911927855225426 55.93570429881751),55.9357043,-3.191192786,residential
,POINT (-3.1915661515659366 55.936385599770574),55.9363856,-3.191566152,residential
,POINT (-3.1906555480265375 55.93617415591692),55.93617416,-3.190655548,residential
,POINT (-3.1745794892010566 55.934953306156466),55.93495331,-3.174579489,residential
,POINT (-3.1785459366812625 55.9370763562204),55.93707636,-3.178545937,residential
,POINT (-3.1725114417761042 55.93511822853077),55.93511823,-3.172511442,residential
,POINT (-3.1719410000000003 55.934054849999995),55.93405485,-3.171941,residential
,POINT (-3.1708514286145 55.93573594839749),55.93573595,-3.170851429,residential
,POINT (-3.1711259959126954 55.934305025613774),55.93430503,-3.171125996,residential
,POINT (-3.173996732844082 55.936109145992496),55.93610915,-3.173996733,residential
,POINT (-3.1722502400313557 55.935105832523305),55.93510583,-3.17225024,residential
,POINT (-3.170337352349964 55.93614505558482),55.93614506,-3.170337352,residential
,POINT (-3.173201651007819 55.93536337101312),55.93536337,-3.173201651,residential
,POINT (-3.171738583990729 55.93516810321909),55.9351681,-3.171738584,residential
,POINT (-3.1709041198043177 55.936518753769086),55.93651875,-3.17090412,residential
,POINT (-3.1730258604666868 55.93519289743021),55.9351929,-3.17302586,residential
,POINT (-3.176656022382052 55.93741539046342),55.93741539,-3.176656022,residential
,POINT (-3.1723842628073013 55.932940895210095),55.9329409,-3.172384263,residential
,POINT (-3.170734560216595 55.93637482849223),55.93637483,-3.17073456,residential
,POINT (-3.1770259515487655 55.93780889942856),55.9378089,-3.177025952,residential
,POINT (-3.17376450950433 55.935176960586844),55.93517696,-3.17376451,residential
,POINT (-3.1718967498936825 55.93548115100316),55.93548115,-3.17189675,residential
,POINT (-3.173615386883523 55.93662195444002),55.93662195,-3.173615387,residential
,POINT (-3.171337102100163 55.93693379327592),55.93693379,-3.171337102,residential
,POINT (-3.17066693269969 55.935367637965065),55.93536764,-3.170666933,residential
,POINT (-3.173403629880842 55.93556132403122),55.93556132,-3.17340363,residential
,POINT (-3.174142821278713 55.93554304406566),55.93554304,-3.174142821,residential
,POINT (-3.175446598505629 55.937789895840254),55.9377899,-3.175446599,residential
,POINT (-3.1699944540271834 55.9356050522488),55.93560505,-3.169994454,residential
,POINT (-3.174441471356513 55.93671268604464),55.93671269,-3.174441471,residential
,POINT (-3.1746979039335943 55.93584574705546),55.93584575,-3.174697904,residential
,POINT (-3.1722894031098585 55.93408450324022),55.9340845,-3.172289403,residential
,POINT (-3.171072897358848 55.936664034775696),55.93666403,-3.171072897,residential
,POINT (-3.1764997725856623 55.93754328972978),55.93754329,-3.176499773,residential
,POINT (-3.170642605506917 55.936035710557505),55.93603571,-3.170642606,residential
,POINT (-3.170466441283571 55.93541830465368),55.9354183,-3.170466441,residential
,POINT (-3.176796827646915 55.93786093268521),55.93786093,-3.176796828,residential
,POINT (-3.1701492361693284 55.93547579642066),55.9354758,-3.170149236,residential
,POINT (-3.173674052865956 55.93581460224125),55.9358146,-3.173674053,residential
,POINT (-3.1743224071414473 55.935683990757354),55.93568399,-3.174322407,residential
,POINT (-3.173422351297998 55.93564525435026),55.93564525,-3.173422351,residential
,POINT (-3.1745358673187662 55.935903222603486),55.93590322,-3.174535867,residential
,POINT (-3.171376266143804 55.93564743216275),55.93564743,-3.171376266,residential
,POINT (-3.175379100000001 55.937918999999994),55.937919,-3.1753791,residential
,POINT (-3.1718609825816753 55.93300815434141),55.93300815,-3.171860983,residential
,POINT (-3.1727482991055975 55.93509771536827),55.93509772,-3.172748299,residential
,POINT (-3.173954690578898 55.93537159831862),55.9353716,-3.173954691,residential
,POINT (-3.170655253420259 55.93435159942586),55.9343516,-3.170655253,residential
,POINT (-3.173852149846976 55.93601949332521),55.93601949,-3.17385215,residential
,POINT (-3.170931996851182 55.935330399739925),55.9353304,-3.170931997,residential
,POINT (-3.1735404813017065 55.93493302149491),55.93493302,-3.173540481,residential
,POINT (-3.1720991005399624 55.93392725021565),55.93392725,-3.172099101,residential
,POINT (-3.1713687764137872 55.9368167707026),55.93681677,-3.171368776,residential
